"id","facility_name","home_care","facility_type_id","postal_code","prefecture_name","city_name","address","latitude","longitude","telphone","fax","representative","homepage","available_time_mon","available_time_tue","available_time_wed","available_time_thu","available_time_fri","available_time_sat","available_time_sun","person","correspondence_dept","correspondence_time","open_24hours","foreign_language","related_facilities","options","note","publish","user_id","created_at","updated_at"
"1","はえばる北クリニック","1","1","9011103","沖縄県","島尻郡南風原町","字与那覇２８３","26.200415","127.738869","098-987-0011","098-987-0022","安里　英樹","www.haebaru-kita.jp","14:00-17:00","14:00-17:00","","14:00-17:00","14:00-17:00","14:00-17:00","","伊敷　美沙那","内科","","0","0","","","緊急時は随時対応","1","1","2017/12/8 00:00:00","2018/2/13 00:00:00"
"2","通所リハビリテーション　サクラビア","0","6","9010314","沖縄県","糸満市","字座波371-1","26.148116","127.687738","098-994-8749","098-994-6917","堀川　義文","https://iwakikai.net/","8:30-17:30","8:30-17:30","8:30-17:30","8:30-17:30","8:30-17:30","8:30-17:30","日曜日、年末年始（12/31～1/2）は休み　/　祝日はサービス提供あり（8:30-17:30）","玉城　久美","","","0","0","介護老人保健施設サクラビア、西崎病院","利用者が明るく、楽しく過ごせるような雰囲気作りに努めています。また、しっかりとしたリハビリテーションが提供できるよう、多くの専門職を配置しています。","介護予防サービスの実施あり。短時間のサービス提供はなし。","1","1","2017/12/13 00:00:00","2018/3/15 00:00:00"
"3","沖縄第一病院訪問介護サービス","0","9","9011111","沖縄県","島尻郡南風原町","字兼城642番地の1","26.194913","127.725976","098-889-8380","098-835-6166","宮城　信雄","http://www.odh.or.jp","8:30-17:30","8:30-17:30","8:30-17:30","8:30-17:30","8:30-17:30","8:30-17:30","8:30-17:30","瑞慶覧　伸","沖縄第一病院訪問介護サービス","","0","0","医療法人信和会　沖縄第一病院、介護老人保健施設おおざと信和苑、沖縄第一病院通所介護センター、通所リハビリセンター、ふれあい訪問看護ステーション、有料老人ホームそよかぜ","介護タクシーもやっています。予約がひつようなので前もってご連絡ください。","","1","1","2017/12/13 00:00:00","2018/2/13 00:00:00"
"4","沖縄県立南部医療センターこども医療センター","0","19","9011193","沖縄県","島尻郡南風原町","字新川118-1","26.205948","127.723745","098-888-0123","","","","","","","","","","","","","","0","0","","","","1","1","2018/1/4 00:00:00","2018/2/13 00:00:00"
"5","勝連病院","0","19","9010331","沖縄県","糸満市","真栄平1026番地","26.115831","127.714566","098-997-3104","098-997-4758","松原　卓也","","","","","","","","","黒澤　幸祐","医療福祉相談室","","0","0","通所リハビリテーション勝連、居宅支援センター勝連","","","1","1","2018/1/4 00:00:00","2018/2/13 00:00:00"
"6","糸満晴明病院","0","19","9010334","沖縄県","糸満市","大渡520","26.098862","127.707603","098-997-2011","","稲冨　仁","","","","","","","","","","","","0","0","","","","1","1","2018/1/4 00:00:00","2018/2/13 00:00:00"
"7","南山病院","1","1","9010313","沖縄県","糸満市","賀数406-1","26.151949","127.692237","098-994-3660","098-994-2598","譜久原　弘","","","","","","","","","","地域医療相談室","","0","0","","","","1","1","2018/1/4 00:00:00","2018/2/13 00:00:00"
"8","西崎病院","1","19","9010314","沖縄県","糸満市","字座波371-1","26.148116","127.687738","098-992-0055","","","","","","","","","","","","","","0","0","","","","1","1","2018/1/4 00:00:00","2018/2/13 00:00:00"
"9","白銀病院","0","19","9010361","沖縄県","糸満市","糸満2041-5","26.134889","127.670158","098-994-2582","098-994-3307","大城　正人","","","","","","","","","","","","0","0","","","","1","1","2018/1/4 00:00:00","2018/2/13 00:00:00"
"10","大浜第二病院","1","1","9010215","沖縄県","豊見城市","渡嘉敷150番地","26.172711","127.683488","098-851-0103","098-851-0200","田中　康範","","14：00～17：00","14：00～17：00","14：00～17：00","9：00～12：00　/　14：00～17：00","14：00～17：00","","","","医療福祉課","","0","0","有料老人ホームなど","","","1","1","2018/1/4 00:00:00","2018/2/13 00:00:00"
"11","豊見城中央病院","0","19","9010243","沖縄県","豊見城市","上田25番地","26.175905","127.676090","098-850-3811","","","","","","","","","","","","","","0","0","","","","1","1","2018/1/4 00:00:00","2018/2/13 00:00:00"
"12","沖縄メディカル病院","1","1","9011414","沖縄県","南城市","佐敷字津波古西原2310番地","26.186756","127.775398","098-947-3555","098-947-3335","大山　朝賢","","","","14：00～17：00","","14：00～17：00","","","與座基子","地域連携室","","0","0","介護老人保健施設「真徳苑」、デイサービス、通所リハビリテーション、訪問看護ステーション、居宅介護支援事業所","","","1","1","2018/1/4 00:00:00","2018/2/13 00:00:00"
"13","与那原中央病院","0","19","9011303","沖縄県","島尻郡与那原町","字与那原2905番地","26.202782","127.748554","098-945-8101","","","","","","","","","","","","","","0","0","","","","1","1","2018/1/4 00:00:00","2018/2/13 00:00:00"
"14","嬉野が丘サマリヤ人病院","0","19","9011105","沖縄県","島尻郡南風原町","新川460番地","26.210300","127.728181","098-889-1328","098-889-0868","山城　義広","","","","","","","","","","","","0","0","","","","1","1","2018/1/4 00:00:00","2018/2/13 00:00:00"
"15","沖縄県立精和病院","0","19","9011105","沖縄県","島尻郡南風原町","新川260","26.207267","127.727750","098-889-1390","","","","","","","","","","","","","","0","0","","","","1","1","2018/1/4 00:00:00","2018/2/13 00:00:00"
"16","久田病院","0","19","9011101","沖縄県","島尻郡南風原町","大名275番地","26.209781","127.731658","098-889-3206","","","","","","","","","","","","","","0","0","","","","1","1","2018/1/4 00:00:00","2018/2/13 00:00:00"
"17","博愛病院","0","19","9011105","沖縄県","島尻郡南風原町","新川485-1","26.211356","127.728011","098-889-4830","","","","","","","","","","","","","","0","0","","","","1","1","2018/1/4 00:00:00","2018/2/13 00:00:00"
"18","沖縄第一病院","1","1","9011111","沖縄県","島尻郡南風原町","兼城642-1","26.194913","127.725976","098-888-1151","","","","","","","14：00～17：00","","","","","訪問看護","","0","0","居宅介護支援、介護予防支援、訪問介護、訪問看護、訪問リハビリテーション、デイサービス、デイケア、介護保健施設「信和苑」","","","1","1","2018/1/4 00:00:00","2018/2/13 00:00:00"
"19","南部徳洲会病院","1","19","9010493","沖縄県","島尻郡八重瀬町","字外間171-1","26.178387","127.715626","098-998-3221","","","","14：00～17：00","","14：00～17：00","14：00～17：00","14：00～17：00","","","","受付","","0","0","居宅介護支援、介護予防支援、訪問介護、デイサービス、デイケア、訪問リハビリテーション","","","1","1","2018/1/4 00:00:00","2018/2/13 00:00:00"
"20","兼島医院","0","20","9010361","沖縄県","糸満市","糸満１５０５－２","26.125734","127.674175","098-992-4850","","","","","","","","","","","","","","0","0","","","","1","1","2018/1/4 00:00:00","2018/2/13 00:00:00"
"21","安里眼科","0","20","9010302","沖縄県","糸満市","潮平７２２","26.146269","127.673041","098-994-1882","098-992-3131","","","","","","","","","","","","","0","0","","","","1","1","2018/1/4 00:00:00","2018/2/13 00:00:00"
"22","かみや母と子のクリニック","0","20","9010301","沖縄県","糸満市","阿波根１５５２－２","26.151588","127.672600","098-995-3511","098-995-2877","","","","","","","","","","","","","0","0","","","","1","1","2018/1/4 00:00:00","2018/2/13 00:00:00"
"23","健孝クリニック","0","20","9010302","沖縄県","糸満市","潮平７１４－２","26.146321","127.672736","098-994-1177","098-994-1055","","","","","","","","","","","","","0","0","","","","1","1","2018/1/4 00:00:00","2018/2/13 00:00:00"
"24","新垣小児科医院","0","20","9010302","沖縄県","糸満市","潮平７０８－２１","26.146066","127.671541","098-992-4050","098-994-0246","","","","","","","","","","","","","0","0","","","","1","1","2018/1/4 00:00:00","2018/2/13 00:00:00"
"25","くでけん小児科","0","20","9010305","沖縄県","糸満市","西崎６－１１－８","26.143616","127.669128","098-994-2099","098-994-2099","","","","","","","","","","","","","0","0","","","","1","1","2018/1/4 00:00:00","2018/2/13 00:00:00"
"26","南部整形外科","0","20","9010302","沖縄県","糸満市","潮平７１４－２","26.146321","127.672736","098-994-1155","098-994-1155","大城　武","","","","","","","","","","","","0","0","","","","1","1","2018/1/4 00:00:00","2018/2/13 00:00:00"
"27","ひめゆりクリニック","0","20","9010344","沖縄県","糸満市","伊原１０７－１","26.094737","127.684739","098-997-3702","098-997-3703","玉城　利昭","","","","","","","","","當山","事務","","0","0","","","今後、訪問診療を行うことを検討中","1","1","2018/1/4 00:00:00","2018/2/13 00:00:00"
"28","かみやクリニック","0","20","9010301","沖縄県","糸満市","阿波根１５５２－２","26.151588","127.672600","098-995-3377","098-995-3377","","","","","","","","","","","","","0","0","","","","1","1","2018/1/4 00:00:00","2018/2/13 00:00:00"
"29","耳鼻咽喉科　かおる医院","0","20","9010302","沖縄県","糸満市","潮平７０５－４","26.145519","127.672086","098-994-1133","098-994-1194","","","","","","","","","","","","","0","0","","","","1","1","2018/1/4 00:00:00","2018/2/13 00:00:00"
"30","てるや眼科クリニック","0","20","9010361","沖縄県","糸満市","糸満１２６６－１","26.125920","127.669917","098-992-0800","098-992-0801","","","","","","","","","","","","","0","0","","","","1","1","2018/1/4 00:00:00","2018/2/13 00:00:00"
"31","ａｍ皮膚科クリニック","0","20","9010302","沖縄県","糸満市","潮平７８７－５","26.150821","127.671327","098-995-1212","098-995-1713","","","","","","","","","","","","","0","0","","","","1","1","2018/1/4 00:00:00","2018/2/13 00:00:00"
"32","豆の木クリニック","0","20","9010302","沖縄県","糸満市","潮平７６４－１","26.149338","127.671622","098-995-3030","098-995-3131","吉原　邦男","","","","","","","","","","","","0","0","","","","1","1","2018/1/4 00:00:00","2018/2/13 00:00:00"
"33","みなみしまクリニック","0","20","9010302","沖縄県","糸満市","潮平７８７－1７","26.150971","127.671433","098-840-3730","098-840-3731","","","","","","","","","","","","","0","0","","","","1","1","2018/1/4 00:00:00","2018/2/13 00:00:00"
"34","たまき耳鼻咽喉科クリニック","0","20","9010362","沖縄県","糸満市","真栄里１４３２－１","26.120857","127.671470","098-995-3387","098-995-3397","玉城三七夫","","","","","","","","","","","","0","0","","","","1","1","2018/1/4 00:00:00","2018/2/13 00:00:00"
"35","きのしたこどもクリニック","0","20","9010362","沖縄県","糸満市","真栄里２０３０－３","26.121371","127.669867","098-995-1100","098-995-1001","","","","","","","","","","","","","0","0","","","","1","1","2018/1/4 00:00:00","2018/2/13 00:00:00"
"36","みんなのクリニック","0","20","9010362","沖縄県","糸満市","真栄里２０２９－１１","26.121168","127.670625","098-840-3733","098-840-3735","","","","","","","","","","","","","0","0","","","","1","1","2018/1/4 00:00:00","2018/2/13 00:00:00"
"37","よしかわ整形クリニック","0","20","9010362","沖縄県","糸満市","真栄里２０３１－４","26.121148","127.670231","098-995-2525","098-995-2211","","","","","","","","","","","","","0","0","","","","1","1","2018/1/4 00:00:00","2018/2/13 00:00:00"
"38","ハートフルクリニック","0","20","9010311","沖縄県","糸満市","武富１６９－２","26.165499","127.693335","098-994-7436","098-994-7436","平良　茂","","","","","","","","","","","","0","0","","","","1","1","2018/1/4 00:00:00","2018/2/13 00:00:00"
"39","いしかわ眼科クリニック","0","20","9010242","沖縄県","豊見城市","高安３１７－１","26.175223","127.686160","098-851-2200","098-851-2201","石川　晃子","","","","","","","","","","","","0","0","","","","1","1","2018/1/4 00:00:00","2018/2/13 00:00:00"
"40","かでな内科医院","1","1","9010241","沖縄県","豊見城市","豊見城７５３－２","26.183074","127.682473","098-850-5266","098-840-2524","嘉手納成之","","午後","午後","午後","","午後","","","","","","0","0","","","かかりつけ患者臨時往診に対応している（電話にて時間調整を行う）","1","1","2018/1/4 00:00:00","2018/2/13 00:00:00"
"41","垣花整形外科医院","0","20","9010241","沖縄県","豊見城市","豊見城１００７－３０","26.189143","127.681009","098-850-4160","098-856-2549","","","","","","","","","","","","","0","0","","","","1","1","2018/1/4 00:00:00","2018/2/13 00:00:00"
"42","ながみね小児科","0","20","9010212","沖縄県","豊見城市","平良１０９－１","26.168751","127.693834","098-856-7300","098-856-7301","","","","","","","","","","","","","0","0","","","","1","1","2018/1/4 00:00:00","2018/2/13 00:00:00"
"43","おなが眼科医院","0","20","9010241","沖縄県","豊見城市","豊見城４３７－２","26.182424","127.678695","098-850-6165","098-850-6165","翁長　春彦","","","","","","","","","","","","0","0","","","","1","1","2018/1/4 00:00:00","2018/2/13 00:00:00"
"44","とよみクリニック","0","20","9010201","沖縄県","豊見城市","真玉橋１２３","26.194135","127.695585","098-856-5700","098-856-5700","","","","","","","","","","","","","0","0","","","","1","1","2018/1/4 00:00:00","2018/2/13 00:00:00"
"45","豊見城医院","0","20","9010235","沖縄県","豊見城市","名嘉地１１２－１","26.177379","127.665469","098-850-2050","098-850-1041","","","","","","","","","","","","","0","0","","","","1","1","2018/1/4 00:00:00","2018/2/13 00:00:00"
"46","しいな整形外科","0","20","9010242","沖縄県","豊見城市","高安３１７－１","26.175223","127.686160","098-850-0417","098-850-4171","","","","","","","","","","","","","0","0","","","","1","1","2018/1/4 00:00:00","2018/2/13 00:00:00"
"47","しろま小児科医院","0","20","9010241","沖縄県","豊見城市","豊見城２９４－２","26.184174","127.676029","098-856-8811","098-856-8949","","","","","","","","","","","","","0","0","","","","1","1","2018/1/4 00:00:00","2018/2/13 00:00:00"
"48","豊見城中央病院付属豊崎クリニック","0","19","9010225","沖縄県","豊見城市","豊崎１－４１２","26.160356","127.660200","098-840-5151","","","","","","","","","","","","","","0","0","","","","1","1","2018/1/4 00:00:00","2018/2/13 00:00:00"
"49","空と海とクリニック","0","20","9010244","沖縄県","豊見城市","宜保３７０","26.178771","127.675965","098-840-2000","098-850-8033","","","","","","","","","","","","","0","0","","","","1","1","2018/1/4 00:00:00","2018/2/13 00:00:00"
"50","なかまクリニック","0","20","9010241","沖縄県","豊見城市","豊見城３７２－１","26.182863","127.675296","098-891-6424","","","","","","","","","","","","","","0","0","","","","1","1","2018/1/4 00:00:00","2018/2/13 00:00:00"
"51","なかそね整形外科リハビリクリニック","0","20","9010241","沖縄県","豊見城市","豊見城４４４－２","26.182963","127.677473","098-851-0255","098-851-0256","","","","","","","","","","","","","0","0","","","","1","1","2018/1/4 00:00:00","2018/2/13 00:00:00"
"52","ゆたか泌尿器科","0","20","9010244","沖縄県","豊見城市","宜保２８２－３","26.176480","127.674946","098-851-1145","098-851-0045","山城　豊","","","","","","","","","","","","0","0","","","","1","1","2018/1/4 00:00:00","2018/2/13 00:00:00"
"53","田仲医院","0","20","9010244","沖縄県","豊見城市","宜保１９０","26.177627","127.677751","098-850-7474","098-850-6363","田仲　秀明","","","","","","","","","","","","0","0","","","","1","1","2018/1/4 00:00:00","2018/2/13 00:00:00"
"54","とくとくクリニック","0","20","9010241","沖縄県","豊見城市","豊見城４４４－２","26.182963","127.677473","098-851-0277","098-851-0278","","","","","","","","","","","","","0","0","","","","1","1","2018/1/4 00:00:00","2018/2/13 00:00:00"
"55","高橋クリニック","0","20","9010224","沖縄県","豊見城市","与根８－１５","26.173043","127.657583","098-851-1971","098-851-2462","","","","","","","","","","","","","0","0","","","","1","1","2018/1/4 00:00:00","2018/2/13 00:00:00"
"56","上地歯科・耳鼻咽喉科","0","21","9010231","沖縄県","豊見城市","我那覇４７６－１","26.176649","127.674535","098-850-8787","","","","","","","","","","","","","","0","0","","","","1","1","2018/1/4 00:00:00","2018/2/13 00:00:00"
"57","うえず内科クリニック","0","20","9010244","沖縄県","豊見城市","宜保３１０－１３","26.178135","127.675849","098-891-6688","098-891-6677","上江州良尚","","","","","","","","","","","","0","0","","","","1","1","2018/1/4 00:00:00","2018/2/13 00:00:00"
"58","豊見城中央病院付属健康管理センター","0","19","9010225","沖縄県","豊見城市","豊崎３－４９","26.160047","127.652283","098-852-2000","098-850-5381","","","","","","","","","","","","","0","0","","","","1","1","2018/1/4 00:00:00","2018/2/13 00:00:00"
"59","渡名喜眼科","0","20","9010235","沖縄県","豊見城市","名嘉地２２０－４","26.174127","127.663785","098-891-6234","098-891-6235","","","","","","","","","","","","","0","0","","","","1","1","2018/1/4 00:00:00","2018/2/13 00:00:00"
"60","朋友クリニック","0","20","9010243","沖縄県","豊見城市","上田１－１７","26.175733","127.680360","098-840-2288","098-840-2277","","","","","","","","","","","","","0","0","","","","1","1","2018/1/4 00:00:00","2018/2/13 00:00:00"
"61","松岡医院","0","20","9010213","沖縄県","豊見城市","字高嶺３９５－５６","26.167226","127.696787","098-850-7977","098-850-0004","","","","","","","","","","","","","0","0","","","","1","1","2018/1/4 00:00:00","2018/2/13 00:00:00"
"62","伊佐内科クリニック","0","20","9010201","沖縄県","豊見城市","字真玉橋２８５－１　とよみメディカルビル４Ｆ","26.190135","127.689996","098-851-8828","098-851-8282","伊佐　勝憲","","","","","","","","","","","","0","0","","","","1","1","2018/1/4 00:00:00","2018/2/13 00:00:00"
"63","愛ホームクリニック","0","20","9010243","沖縄県","豊見城市","字上田５６５","26.175219","127.680743","050-1494-1913","","","","","","","","","","","","","","0","0","","","","1","1","2018/1/4 00:00:00","2018/2/13 00:00:00"
"64","とよみ眼科","0","20","9010201","沖縄県","豊見城市","字真玉橋２８５－１","26.190165","127.690036","098-987-4004","098-987-4084","今泉　綾子","","","","","","","","","","","","0","0","","","","1","1","2018/1/4 00:00:00","2018/2/13 00:00:00"
"65","さくもと泌尿器科・皮フ科","0","20","9010241","沖縄県","豊見城市","豊見城５４８－１","26.180083","127.680909","098-851-0022","098-851-0023","","","","","","","","","","","","","0","0","","","","1","1","2018/1/4 00:00:00","2018/2/13 00:00:00"
"66","ぐしこどもクリニック","0","20","9010244","沖縄県","豊見城市","字宜保２９１","26.177061","127.675582","098-850-3102","098-851-9105","","","","","","","","","","","","","0","0","","","","1","1","2018/1/4 00:00:00","2018/2/13 00:00:00"
"67","かかず耳鼻咽喉科クリニック","0","20","9010201","沖縄県","豊見城市","字真玉橋２８５－１","26.190165","127.690036","098-856-3317","098-856-3322","","","","","","","","","","","","","0","0","","","","1","1","2018/1/4 00:00:00","2018/2/13 00:00:00"
"68","みなみ耳鼻咽喉科医院","0","20","9011206","沖縄県","南城市","大里仲間１１１２－５","26.174954","127.747473","098-946-7033","098-946-1159","江夏　努","","","","","","","","","","","","0","0","","","","1","1","2018/1/4 00:00:00","2018/2/13 00:00:00"
"69","沖縄県立南部医療センター・こども医療センター付属久高診療所","0","23","9011501","沖縄県","南城市","知念字久高２３１－２","26.156040","127.887373","098-948-1319","098-948-1319","","","","","","","","","","","","","0","0","","","","1","1","2018/1/4 00:00:00","2018/2/13 00:00:00"
"70","みなみ野クリニック","0","20","9011208","沖縄県","南城市","大里字平良２５８４－２","26.180534","127.747928","098-945-8811","098-945-8558","外間康男","http://minamino.clinic.com","","","","","","","","","","","0","0","","","","1","1","2018/1/4 00:00:00","2018/2/13 00:00:00"
"71","大里こどもクリニック","0","20","9011208","沖縄県","南城市","大里字平良２５４５－１","26.178093","127.747737","098-882-8111","098-882-0077","","","","","","","","","","","","","0","0","","","","1","1","2018/1/4 00:00:00","2018/2/13 00:00:00"
"72","南城眼科","0","20","9010615","沖縄県","南城市","玉城堀川６９５－１","26.129872","127.762481","098-949-1680","098-949-1681","森山無価","www.nanjoganka.jp","","","","","","","","河野豊","事務長","","0","0","","","今後、訪問診療を行う予定：検討中","1","1","2018/1/4 00:00:00","2018/2/13 00:00:00"
"73","平田内科医院","0","20","9011204","沖縄県","南城市","大里稲嶺１９９５","26.169674","127.740940","098-946-8008","098-946-8860","","","","","","","","","","","","","0","0","","","","1","1","2018/1/4 00:00:00","2018/2/13 00:00:00"
"74","ふじた眼科","0","20","9011414","沖縄県","南城市","佐敷字津波古２４９","26.183801","127.772748","098-943-8700","098-943-8701","","","","","","","","","","","","","0","0","","","","1","1","2018/1/4 00:00:00","2018/2/13 00:00:00"
"75","ゆかる医院","0","20","9011505","沖縄県","南城市","知念字久原６９３　","26.187000","127.807338","098-947-3331","098-947-3338","","","","","","","","","","","","","0","0","","","","1","1","2018/1/4 00:00:00","2018/2/13 00:00:00"
"76","野原整形外科","0","20","9011302","沖縄県","島尻郡与那原町","上与那原３４１－２","26.200152","127.751818","098-946-1010","098-946-1020","","","","","","","","","","","","","0","0","","","","1","1","2018/1/4 00:00:00","2018/2/13 00:00:00"
"77","知念耳鼻咽喉科","0","20","9011302","沖縄県","島尻郡与那原町","上与那原３３５－１","26.199938","127.751915","098-945-3987","098-945-0437","","","","","","","","","","","","","0","0","","","","1","1","2018/1/4 00:00:00","2018/2/13 00:00:00"
"78","又吉皮フ科","0","20","9011303","沖縄県","島尻郡与那原町","与那原１０２１","26.207982","127.757978","098-944-2525","","","","","","","","","","","","","","0","0","","","","1","1","2018/1/4 00:00:00","2018/2/13 00:00:00"
"79","あおぞら小児科","0","20","9011302","沖縄県","島尻郡与那原町","上与那原３４０－１","26.200332","127.752107","098-946-1961","","","","","","","","","","","","","","0","0","","","","1","1","2018/1/4 00:00:00","2018/2/13 00:00:00"
"80","ながみね内科","0","20","9011303","沖縄県","島尻郡与那原町","与那原１１２１","26.210543","127.759581","098-882-0777","098-882-0770","","","","","","","","","","","","","0","0","","","","1","1","2018/1/4 00:00:00","2018/2/13 00:00:00"
"81","まつだクリニック","0","20","9011303","沖縄県","島尻郡与那原町","与那原３６７８","26.199872","127.761067","098-944-7400","","","","","","","","","","","","","","0","0","","","","1","1","2018/1/4 00:00:00","2018/2/13 00:00:00"
"82","よなみね眼科","0","20","9011304","沖縄県","島尻郡与那原町","東浜９４－１","26.205230","127.757345","098-944-1351","098-944-1348","","","","","","","","","","","","","0","0","","","","1","1","2018/1/4 00:00:00","2018/2/13 00:00:00"
"83","上よなばるクリニック","0","20","9011302","沖縄県","島尻郡与那原町","字上与那原４６４","26.199585","127.747844","098-917-1078","","","","","","","","","","","","","","0","0","","","","1","1","2018/1/4 00:00:00","2018/2/13 00:00:00"
"84","なかだ内科クリニック","0","20","9011304","沖縄県","島尻郡与那原町","東浜９３－３","26.204941","127.758776","098-944-2211","098-944-2212","","","","","","","","","","","","","0","0","","","","1","1","2018/1/4 00:00:00","2018/2/13 00:00:00"
"85","はえばる耳鼻咽喉科","0","20","9011105","沖縄県","島尻郡南風原町","新川１６３","26.203254","127.727251","098-888-2233","098-888-2233","","","","","","","","","","","","","0","0","","","","1","1","2018/1/4 00:00:00","2018/2/13 00:00:00"
"86","沖縄県立南部保健所","0","23","9011104","沖縄県","島尻郡南風原町","宮平２１２","26.199032","127.738892","098-889-6364","","","","","","","","","","","","","","0","0","","","","1","1","2018/1/4 00:00:00","2018/2/13 00:00:00"
"87","沖縄県立総合精神保健福祉センター","0","23","9011104","沖縄県","島尻郡南風原町","宮平２１２","26.199032","127.738892","098-888-1443","","","","","","","","","","","","","","0","0","","","","1","1","2018/1/4 00:00:00","2018/2/13 00:00:00"
"88","はえばる皮ふ科医院","0","20","9011111","沖縄県","島尻郡南風原町","兼城７２５","26.190036","127.730782","098-889-7557","098-889-7877","","","","","","","","","","","","","0","0","","","","1","1","2018/1/4 00:00:00","2018/2/13 00:00:00"
"89","はえばる眼科医院","0","20","9011111","沖縄県","島尻郡南風原町","兼城７２５","26.190036","127.730782","098-889-7555","098-889-7877","","","","","","","","","","","","","0","0","","","","1","1","2018/1/4 00:00:00","2018/2/13 00:00:00"
"90","のはら小児科医院","0","20","9011111","沖縄県","島尻郡南風原町","兼城２５８","26.196621","127.731067","098-888-2111","098-888-1439","","","","","","","","","","","","","0","0","","","","1","1","2018/1/4 00:00:00","2018/2/13 00:00:00"
"91","上里整形外科","0","20","9011111","沖縄県","島尻郡南風原町","兼城４０１","26.196574","127.724385","098-888-2227","098-888-2226","","","","","","","","","","","","","0","0","","","","1","1","2018/1/4 00:00:00","2018/2/13 00:00:00"
"92","一般社団法人沖縄県健康づくり財団付属診療所","0","23","9011104","沖縄県","島尻郡南風原町","宮平２１２","26.199032","127.738892","098-889-6474","098-889-6463","","","","","","","","","","","","","0","0","","","","1","1","2018/1/4 00:00:00","2018/2/13 00:00:00"
"93","一日橋医院","0","20","9011111","沖縄県","島尻郡南風原町","兼城４９７－１","26.196804","127.719319","098-889-7387","098-888-4318","","","","","","","","","","","","","0","0","","","","1","1","2018/1/4 00:00:00","2018/2/13 00:00:00"
"94","てるや整形外科","0","20","9011117","沖縄県","島尻郡南風原町","津嘉山１５９５","26.183853","127.712623","098-888-3636","098-888-4877","","","","","","","","","","","","","0","0","","","","1","1","2018/1/4 00:00:00","2018/2/13 00:00:00"
"95","吉クリニック","0","20","9011114","沖縄県","島尻郡南風原町","神里４９５","26.172874","127.727642","098-888-5552","098-888-5586","吉　晋一郎","","","","","","","","","","","","0","0","","","","1","1","2018/1/4 00:00:00","2018/2/13 00:00:00"
"96","ウィメンズメンタルクリニックみなみ","0","20","9011105","沖縄県","島尻郡南風原町","新川５０７－１","26.213244","127.727950","098-889-3739","","","","","","","","","","","","","","0","0","","","","1","1","2018/1/4 00:00:00","2018/2/13 00:00:00"
"97","比嘉胃腸科内科","0","20","9011116","沖縄県","島尻郡南風原町","照屋３６２","26.185689","127.727368","098-882-7000","098-882-7001","","","","","","","","","","","","","0","0","","","","1","1","2018/1/4 00:00:00","2018/2/13 00:00:00"
"98","えびす耳鼻科","0","20","9011103","沖縄県","島尻郡南風原町","与那覇２８３","26.200415","127.738869","098-987-0033","","","","","","","","","","","","","","0","0","","","","1","1","2018/1/4 00:00:00","2018/2/13 00:00:00"
"99","心のクリニックさくら","0","20","9011103","沖縄県","島尻郡南風原町","与那覇２８３","26.200415","127.738869","098-851-7888","098-851-7555","","","","","","","","","","","","","0","0","","","","1","1","2018/1/4 00:00:00","2018/2/13 00:00:00"
"100","南風内科クリニック","0","20","9011117","沖縄県","島尻郡南風原町","字津嘉山１４９０　","26.189922","127.708390","098-888-2121","098-888-1414","照屋　諭","","","","","","","","","","","","0","0","","","","1","1","2018/1/4 00:00:00","2018/2/13 00:00:00"
"101","みやぐに皮フ科","0","20","9011117","沖縄県","島尻郡南風原町","字津嘉山１４９０　","26.189922","127.708390","098-888-4112","098-888-4113","宮國　均","","","","","","","","","","","","0","0","","","","1","1","2018/1/4 00:00:00","2018/2/13 00:00:00"
"102","わんぱくクリニック","0","20","9011117","沖縄県","島尻郡南風原町","字津嘉山１４９０","26.189922","127.708390","098-888-1234","098-888-1211","呉屋　良信","","","","","","","","","","","","0","0","","","","1","1","2018/1/4 00:00:00","2018/2/13 00:00:00"
"103","つかやま内科","0","20","9011117","沖縄県","島尻郡南風原町","字津嘉山１６７４","26.183633","127.712851","098-888-6610","098-888-6611","津嘉山朝洋","","","","","","","","","","","","0","0","","","","1","1","2018/1/4 00:00:00","2018/2/13 00:00:00"
"104","発達・神経クリニックプロップ","0","20","9011105","沖縄県","島尻郡南風原町","字新川２１５－３","26.204001","127.727140","098-987-1233","098-987-0817","城間　直秀","","","","","","","","","","","","0","0","","","","1","1","2018/1/4 00:00:00","2018/2/13 00:00:00"
"105","つかざん腎クリニック","0","20","9011117","沖縄県","島尻郡南風原町","字津嘉山１４９０　メディカルプラザつかざん４Ｆ","26.189832","127.708439","098-888-3200","","","","","","","","","","","","","","0","0","","","","1","1","2018/1/4 00:00:00","2018/2/13 00:00:00"
"106","つかざんクリニック","0","20","9011117","沖縄県","島尻郡南風原町","字津嘉山１３１５－１","26.194015","127.712919","098-888-6789","098-888-6791","","","","","","","","","","","","","0","0","","","","1","1","2018/1/4 00:00:00","2018/2/13 00:00:00"
"107","空の森クリニック","0","20","9010406","沖縄県","島尻郡八重瀬町","字屋宜原２２９－１","26.165297","127.724417","098-998-0011","098-998-0022","","","","","","","","","","","","","0","0","","","","1","1","2018/1/4 00:00:00","2018/2/13 00:00:00"
"108","東風平第一医院","0","20","9010411","沖縄県","島尻郡八重瀬町","友寄４２","26.170338","127.721034","098-998-6987","098-998-6978","","","","","","","","","","","","","0","0","","","","1","1","2018/1/4 00:00:00","2018/2/13 00:00:00"
"109","東風平クリニック","0","20","9010405","沖縄県","島尻郡八重瀬町","伊覇２５４－３　","26.157128","127.721662","098-998-6636","098-998-6637","","","","","","","","","","","","","0","0","","","","1","1","2018/1/4 00:00:00","2018/2/13 00:00:00"
"110","中村内科胃腸科","0","20","9010512","沖縄県","島尻郡八重瀬町","具志１５４－９","26.123692","127.748610","098-840-7778","098-998-0860","中村　博","","","","","","","","","","","","0","0","","","","1","1","2018/1/4 00:00:00","2018/2/13 00:00:00"
"111","やえせ整形外科","0","20","9010405","沖縄県","島尻郡八重瀬町","字伊覇２５８－２","26.157922","127.722001","098-851-4888","098-851-8444","新井　弘一","","","","","","","","","","","","0","0","","","","1","1","2018/1/4 00:00:00","2018/2/13 00:00:00"
"112","沖縄こどもおとなの整形外科","0","20","9010401","沖縄県","島尻郡八重瀬町","字東風平１２０９","26.156458","127.719151","098-840-7770","098-840-7771","久光淳士郎","","","","","","","","","","","","0","0","","","","1","1","2018/1/4 00:00:00","2018/2/13 00:00:00"
"113","やえせ眼科","0","20","9010405","沖縄県","島尻郡八重瀬町","字伊覇６５－２７","26.159464","127.721690","098-998-1188","098-998-2662","","","","","","","","","","","","","0","0","","","","1","1","2018/1/4 00:00:00","2018/2/13 00:00:00"
"114","耳鼻咽喉科やえせクリニック","0","20","9010405","沖縄県","島尻郡八重瀬町","字伊覇３０４","26.161905","127.723781","098-998-1212","098-998-1213","","","","","","","","","","","","","0","0","","","","1","1","2018/1/4 00:00:00","2018/2/13 00:00:00"
"115","やえせ子どもクリニック","0","20","9010405","沖縄県","島尻郡八重瀬町","字伊覇５４－3","26.159258","127.721343","098-998-1234","098-998-1100","","","","","","","","","","","","","0","0","","","","1","1","2018/1/4 00:00:00","2018/2/13 00:00:00"
"116","とよみ生協病院","0","19","9010314","沖縄県","糸満市","豊見城市字真玉橋593番地の1","26.193073","127.687322","098-850-7955","","","","","","","","","","","","","","0","0","","","","1","1","2018/1/4 00:00:00","2018/2/13 00:00:00"
"117","西崎病院","0","19","9010314","沖縄県","糸満市","字座波371番地1","26.148116","127.687738","098-992-0055","","","","","","","","","","","","","","0","0","","","","1","1","2018/1/4 00:00:00","2018/2/13 00:00:00"
"118","南部病院","1","1","9010362","沖縄県","糸満市","字真栄里870","26.112382","127.670956","098-994-0501(代)","098-994-0506","城間　寛","","","","","","","","","","","","0","0","介護保険事業：居宅介護支援、介護予防支援、訪問介護、デイケア、訪問リハビリ、居宅療養管理指導","","","1","1","2018/1/4 00:00:00","2018/6/5 00:00:00"
"119","県立南部医療センター・こども医療センター","0","19","9011193","沖縄県","島尻郡南風原町","字新川118-1","26.205948","127.723745","098-888-0123","","","","","","","","","","","","","","0","0","","","","1","1","2018/1/4 00:00:00","2018/2/13 00:00:00"
"120","がじまる診療所","1","2","9010305","沖縄県","糸満市","西崎2丁目26番6号","26.140365","127.662629","098-851-3347","","","","","","","","","","","","","","0","0","","","","1","1","2018/1/4 00:00:00","2018/2/15 00:00:00"
"121","い歯科医院","0","21","9010302","沖縄県","糸満市","潮平６０６－１ ","26.144046","127.672786","098-994-1827","","","","","","","","","","","","","","0","0","","","","1","1","2018/1/4 00:00:00","2018/2/13 00:00:00"
"122","ふてんま歯科クリニック","0","21","9010305","沖縄県","糸満市","西崎６－１９－３西崎プラザ２Ｆ","26.141587","127.669695","098-994-8941 ","","","","","","","","","","","","","","0","0","","","","1","1","2018/1/4 00:00:00","2018/2/13 00:00:00"
"123","上原歯科クリニック","0","21","9010305","沖縄県","糸満市","西崎６－１５－２","26.143327","127.669386","098-992-2888 ","","","","","","","","","","","","","","0","0","","","","1","1","2018/1/4 00:00:00","2018/2/13 00:00:00"
"124","ファミリー歯科クリニック","0","21","9010305","沖縄県","糸満市","西崎町３－４９３ ","26.149663","127.669333","098-992-1818 ","","","","","","","","","","","","","","0","0","","","","1","1","2018/1/4 00:00:00","2018/2/13 00:00:00"
"125","大城歯科","0","21","9010305","沖縄県","糸満市","西崎２－４３－３","26.142196","127.665275","098-994-7808 ","","","","","","","","","","","","","","0","0","","","","1","1","2018/1/4 00:00:00","2018/2/13 00:00:00"
"126","しおひら歯科医院","0","3","9010302","沖縄県","糸満市","潮平６１９－２","26.145244","127.672958","098-992-1110 ","098-992-1110","金城竹治","","9：00～13：00　/　13：00～16：00","9：00～13：00　/　13：00～16：00","9：00～13：00　/　13：00～16：00","9：00～13：00　/　13：00～16：00","9：00～13：00　/　13：00～16：00","9：00～13：00　/　13：00～16：00","日曜日は訪問診療は休み","","","","0","0","","","訪問診療時間は患者様と相談しながらしています。","1","1","2018/1/4 00:00:00","2018/3/2 00:00:00"
"127","フレンド歯科医院","0","21","9010305","沖縄県","糸満市","西崎２－７－１４グランハイム西崎　１階","26.143910","127.664791","098-994-4618","","","","","","","","","","","","","","0","0","","","","1","1","2018/1/4 00:00:00","2018/2/13 00:00:00"
"128","かみや歯科クリニック","0","21","9010302","沖縄県","糸満市","潮平７９８－４オアシス當銘１Ｆ ","26.152635","127.671607","098-994-2000","","","","","","","","","","","","","","0","0","","","","1","1","2018/1/4 00:00:00","2018/2/13 00:00:00"
"129","サンプラザ糸満歯科医院 　","0","21","9010303","沖縄県","糸満市","兼城４００","26.139347","127.672342","098-992-0311 ","","","","","","","","","","","","","","0","0","","","","1","1","2018/1/4 00:00:00","2018/2/13 00:00:00"
"130","かしわ歯科","0","21","9010361","沖縄県","糸満市","糸満１４７３－２－１Ｆ","26.126115","127.673706","098-992-4171","098-992-4171","","","","","","","","","","","","","0","0","","バリアフリーな環境：車イス利用の方へ対応可","","1","1","2018/1/4 00:00:00","2018/2/13 00:00:00"
"131","アサヒ歯科医院","0","21","9010361","沖縄県","糸満市","糸満１２７８－２　１Ｆ","26.125592","127.670159","098-994-0900","","","","","","","","","","","","","","0","0","","","","1","1","2018/1/4 00:00:00","2018/2/13 00:00:00"
"132","まえざと歯科　","0","21","9010362","沖縄県","糸満市","真栄里２０５８－２リーブル沖縄　101号","26.119987","127.668809","098-995-0542 ","","","","","","","","","","","","","","0","0","","","","1","1","2018/1/4 00:00:00","2018/2/13 00:00:00"
"133","かなばやし歯科　","0","21","9010313","沖縄県","糸満市","賀数４６９ニューワールド１０１","26.150875","127.690100","098-992-6480 ","098-992-6480","","","","","","","","","","","","","0","0","","バリアーフリーな環境：車イス利用の方へ対応可","今後、歯科訪問診療を行うことを検討中","1","1","2018/1/4 00:00:00","2018/2/13 00:00:00"
"134","やすだ歯科医院","0","21","9010361","沖縄県","糸満市","糸満１９２２","26.130456","127.675711","098-852-3301 ","","","","","","","","","","","","","","0","0","","","","1","1","2018/1/4 00:00:00","2018/2/13 00:00:00"
"135","あおば歯科医院","0","21","9010345","沖縄県","糸満市","福地１６５－１","26.098664","127.676581","098-997-4019","098-997-4019","山城隆男","","","","14：00～17：00","","","","","","","","0","0","","","","1","1","2018/1/4 00:00:00","2018/2/13 00:00:00"
"136","げんまい歯科医院","0","21","9010335","沖縄県","糸満市","米須２４８ ","26.094890","127.696966","098-997-2306","098-997-2310","中山　圭子","","","","","","","","","","","","0","0","","","","1","1","2018/1/4 00:00:00","2018/2/13 00:00:00"
"137","あはごん歯科","0","21","9010302","沖縄県","糸満市","潮平７７１－２花城アパート１Ｆ","26.149738","127.672363","098-994-6480 ","","","","","","","","","","","","","","0","0","","","","1","1","2018/1/4 00:00:00","2018/2/13 00:00:00"
"138","上原歯科医院","0","21","9010361","沖縄県","糸満市","字糸満１３６７-１","26.129134","127.672972","098-994-2066","098-994-2240","上原かんな","","","","","","","","","","","","0","0","","バリアフリーな環境：車イス利用の方へ対応可","休診日（木・日・祝祭日）歯科訪問診療については準備中","1","1","2018/1/4 00:00:00","2018/2/13 00:00:00"
"139","上地歯科・耳鼻咽喉科","0","21","9010231","沖縄県","豊見城市","字我那覇４７６－1","26.176649","127.674535","098-851-2555","","","","","","","","","","","","","","0","0","","","","1","1","2018/1/4 00:00:00","2018/2/13 00:00:00"
"140","ざは歯科クリニック","0","21","9010242","沖縄県","豊見城市","高安４１３－１大漁マンション２Ｆ","26.176499","127.682620","098-850-5048 ","","","","","","","","","","","","","","0","0","","","","1","1","2018/1/4 00:00:00","2018/2/13 00:00:00"
"141","竹尾歯科医院","0","3","9010213","沖縄県","豊見城市","高嶺３９３－５ ","26.167235","127.695845","098-856-3569 ","098-856-3569","竹尾　孝明","","","","","","","","","","","","0","0","","","","1","1","2018/1/4 00:00:00","2018/3/2 00:00:00"
"142","おおみ歯科医院","0","3","9010241","沖縄県","豊見城市","豊見城６７３－５ ","26.179350","127.681320","098-856-5187","098-856-5528","大見謝　健","","要相談","要相談","要相談","要相談","要相談","要相談","日曜日・祝祭日は休診","","","","0","0","","","","1","1","2018/1/4 00:00:00","2018/3/2 00:00:00"
"143","豊見城歯科クリニック","0","21","9010213","沖縄県","豊見城市","高嶺３５９－１ ","26.166612","127.693307","098-850-1077 ","","","","","","","","","","","","","","0","0","","","","1","1","2018/1/4 00:00:00","2018/2/13 00:00:00"
"144","ハッピー歯科小児歯科","0","21","9010241","沖縄県","豊見城市","豊見城８０嘉数アパート２Ｆ","26.187070","127.680044","098-850-0648 ","","","","","","","","","","","","","","0","0","","","","1","1","2018/1/4 00:00:00","2018/2/13 00:00:00"
"145","ゆがふ歯科クリニック","0","21","9010241","沖縄県","豊見城市","豊見城４６９－１ ","26.182871","127.678479","098-856-6209 ","098-856-6768","宮城　克優","","","","","","","","","","","","0","0","","","","1","1","2018/1/4 00:00:00","2018/2/13 00:00:00"
"146","みやひら歯科医院","0","21","9010201","沖縄県","豊見城市","真玉橋１３５","26.193273","127.694266","098-856-4182 ","","","","","","","","","","","","","","0","0","","","","1","1","2018/1/4 00:00:00","2018/2/13 00:00:00"
"147","ねま歯科クリニック","0","21","9010244","沖縄県","豊見城市","宜保３１０－１１豊和マンション１Ｆ","26.177412","127.675764","098-850-0207","","","","","","","","","","","","","","0","0","","","","1","1","2018/1/4 00:00:00","2018/2/13 00:00:00"
"148","歯科ヨナシロ医院","0","21","9010242","沖縄県","豊見城市","高安７３４－２　２Ｆ","26.179175","127.687448","098-850-8148","","","","","","","","","","","","","","0","0","","","","1","1","2018/1/4 00:00:00","2018/2/13 00:00:00"
"149","寺西歯科医院","0","21","9010241","沖縄県","豊見城市","豊見城４１９－１","26.182968","127.675879","098-891-6480 ","","","","","","","","","","","","","","0","0","","","","1","1","2018/1/4 00:00:00","2018/2/13 00:00:00"
"150","トヨミ歯科","0","21","9010200","沖縄県","豊見城市","根差部７１０マックスバリューとよみ店","26.189899","127.687969","098-850-5108 ","","","","","","","","","","","","","","0","0","","","","1","1","2018/1/4 00:00:00","2018/2/13 00:00:00"
"151","真玉橋歯科医院","0","21","9010201","沖縄県","豊見城市","真玉橋１４７ ","26.192296","127.693566","098-856-0345 ","","","","","","","","","","","","","","0","0","","","","1","1","2018/1/4 00:00:00","2018/2/13 00:00:00"
"152","きらら歯科クリニック","0","21","9010244","沖縄県","豊見城市","宜保３７０番地","26.178771","127.675965","098-840-5557","","","","","","","","","","","","","","0","0","","","","1","1","2018/1/4 00:00:00","2018/2/13 00:00:00"
"153","とよみデンタルクリニック","0","21","9010212","沖縄県","豊見城市","平良９５番地の１","26.169621","127.693415","098-891-6408 ","098-891-6409","清水　俊景","","","","","","","","","","","","0","0","","","","1","1","2018/1/4 00:00:00","2018/2/13 00:00:00"
"154","金城歯科クリニック","0","21","9010205","沖縄県","豊見城市","根差部４１９番地","26.190135","127.691508","098-856-0136 ","","","","","","","","","","","","","","0","0","","","","1","1","2018/1/4 00:00:00","2018/2/13 00:00:00"
"155","豊崎デンタルクリニック","0","21","9010225","沖縄県","豊見城市","豊崎１－４２３","26.157095","127.659339","098-856-2238 ","","","","","","","","","","","","","","0","0","","","","1","1","2018/1/4 00:00:00","2018/2/13 00:00:00"
"156","しおはま歯科医院","0","21","9010241","沖縄県","豊見城市","豊見城３６８－１　１Ｆ","26.183639","127.675846","098-851-1234 ","","","","","","","","","","","","","","0","0","","","","1","1","2018/1/4 00:00:00","2018/2/13 00:00:00"
"157","まこと歯科医院","0","21","9010225","沖縄県","豊見城市","豊崎１－３２６","26.156242","127.661375","098-850-9009 ","","","","","","","","","","","","","","0","0","","","","1","1","2018/1/4 00:00:00","2018/2/13 00:00:00"
"158","オレンジ歯科クリニック","0","21","9010213","沖縄県","豊見城市","字高嶺３６４－１　コモンズ栄Ａ－１","26.167376","127.693787","098-856-6480 ","","","","","","","","","","","","","","0","0","","","","1","1","2018/1/4 00:00:00","2018/2/13 00:00:00"
"159","かめーる歯科","0","21","9010231","沖縄県","豊見城市","字我那覇６４３番地","26.176732","127.669882","098-850-4618 ","098-850-4620","城間　孝","","","","","","","","","","","","0","0","","バリアフリーな環境：車イス利用の方へ対応可、障がい者用トイレあり","","1","1","2018/1/4 00:00:00","2018/2/13 00:00:00"
"160","モリヤデンタルオフィス","0","21","9010223","沖縄県","豊見城市","翁長８５４－２－１０１","26.161275","127.669247","098-850-3239 ","","","","","","","","","","","","","","0","0","","","","1","1","2018/1/4 00:00:00","2018/2/13 00:00:00"
"161","よつば小児・矯正歯科","0","21","9010225","沖縄県","豊見城市","豊崎１－３２３ ","26.156581","127.660981","098-851-3167 ","","","","","","","","","","","","","","0","0","","","","1","1","2018/1/4 00:00:00","2018/2/13 00:00:00"
"162","とはしな歯科クリニック","0","21","9010222","沖縄県","豊見城市","字渡橋名２番地１ ","26.167595","127.676335","098-856-7800 ","","","","","","","","","","","","","","0","0","","","","1","1","2018/1/4 00:00:00","2018/2/13 00:00:00"
"163","瀬底歯科医院","0","21","9011414","沖縄県","南城市","佐敷津波古２４６","26.184112","127.773056","098-947-6207","","","","","","","","","","","","","","0","0","","","","1","1","2018/1/4 00:00:00","2018/2/13 00:00:00"
"164","松山歯科","0","21","9011414","沖縄県","南城市","佐敷津波古１００６ ","26.179774","127.774204","098-947-3537","","","","","","","","","","","","","","0","0","","","","1","1","2018/1/4 00:00:00","2018/2/13 00:00:00"
"165","おおざと歯科医院","0","21","9011202","沖縄県","南城市","大里字平良２５０５－１ ","26.179029","127.747989","098-945-4108","","","","","","","","","","","","","","0","0","","","","1","1","2018/1/4 00:00:00","2018/2/13 00:00:00"
"166","船越歯科医院","0","21","9010618","沖縄県","南城市","玉城船越９８０城マンション１Ｆ ","26.151752","127.752438","098-949-7878 ","","","","","","","","","","","","","","0","0","","","","1","1","2018/1/4 00:00:00","2018/2/13 00:00:00"
"167","トモヨセ歯科","0","21","9011206","沖縄県","南城市","大里仲間１１６２－２ ","26.173835","127.745851","098-944-6480 ","","","","","","","","","","","","","","0","0","","","","1","1","2018/1/4 00:00:00","2018/2/13 00:00:00"
"168","さしき歯科","0","21","9011412","沖縄県","南城市","佐敷新里６０７－１ ","26.171872","127.777037","098-947-0789","098-947-0789","城島かおり","","","","","","","","","","","","0","0","","","","1","1","2018/1/29 00:00:00","2018/2/13 00:00:00"
"169","アトール歯科","0","21","9011206","沖縄県","南城市","大里仲間１１５５ ","26.174115","127.747176","098-944-5610","","","","","","","","","","","","","","0","0","","","","1","1","2018/1/4 00:00:00","2018/2/13 00:00:00"
"170","ふさとデンタルクリニック","0","21","9010611","沖縄県","南城市","玉城富里８","26.143902","127.767855","098-948-7778 ","","","","","","","","","","","","","","0","0","","","","1","1","2018/1/4 00:00:00","2018/2/13 00:00:00"
"171","南城歯科クリニック","0","21","9010615","沖縄県","南城市","玉城堀川７８８番地","26.130281","127.762998","098-948-4855","098-948-1771","加藤　広通","","","","","","","","","","","","0","0","","バリアフリーな環境：車イス利用の方への対応可","","1","1","2018/1/4 00:00:00","2018/2/13 00:00:00"
"172","しんかい歯科","0","21","9011415","沖縄県","南城市","佐敷新開１－１１１ ","26.176435","127.775415","098-947-1455","","","","","","","","","","","","","","0","0","","","","1","1","2018/1/4 00:00:00","2018/2/13 00:00:00"
"173","ふたば歯科医院","0","21","9011415","沖縄県","南城市","佐敷新開１－１４３ ","26.176447","127.774582","098-947-4550 ","","比嘉奈々子","","","","","","","","","","","","0","0","","","","1","1","2018/1/4 00:00:00","2018/2/13 00:00:00"
"174","コマカ歯科クリニック","0","3","9011511","沖縄県","南城市","知念久手堅３２７－１","26.169743","127.826227","098-948-3108","098-948-3108","南原　弘","","12：00～16：00","12：00～16：00","12：00～16：00","12：00～16：00","12：00～16：00","12：00～16：00","日曜・祝祭日は相談可","","","","0","0","","","バリアーフリーな環境：車イス使用の方に対応可","1","1","2018/1/4 00:00:00","2018/3/2 00:00:00"
"175","みのり歯科　大里","0","21","9011205","沖縄県","南城市","大里字高平高宮城原９７番地２ ","26.173456","127.744754","098-943-8686","098-943-8567","山本秀美","www.kenyukai-dental.com","","","","","","","","","","","0","0","","","歯科訪問診療は、現在、歯科医師・スタッフ不足の為、対応できません。今後、歯科訪問診療を行うことを検討中です。","1","1","2018/1/4 00:00:00","2018/2/13 00:00:00"
"176","ひまわり歯科医院","0","21","9011303","沖縄県","島尻郡与那原町","与那原１１０７ ","26.201199","127.756473","098-945-6480 ","","","","","","","","","","","","","","0","0","","","","1","1","2018/1/4 00:00:00","2018/2/13 00:00:00"
"177","マリンタウン東浜総合歯科","0","21","9011304","沖縄県","島尻郡与那原町","東浜２２－４","26.206791","127.762534","098-871-9933 ","","","","","","","","","","","","","","0","0","","","","1","1","2018/1/4 00:00:00","2018/2/13 00:00:00"
"178","よなばる中央歯科","0","21","9011303","沖縄県","島尻郡与那原町","与那原７７上原ビル２Ｆ ","26.200250","127.760865","098-945-5588 ","","","","","","","","","","","","","","0","0","","","","1","1","2018/1/4 00:00:00","2018/2/13 00:00:00"
"179","ｉデンタルクリニック","0","21","9011304","沖縄県","島尻郡与那原町","東浜８０－３ ","26.207132","127.758539","098-944-4007 ","","","","","","","","","","","","","","0","0","","","","1","1","2018/1/4 00:00:00","2018/2/13 00:00:00"
"180","東浜アクア歯科","0","21","9011304","沖縄県","島尻郡与那原町","字東浜９９番３","26.203555","127.757579","098-945-1182","","","","","","","","","","","","","","0","0","","","","1","1","2018/1/4 00:00:00","2018/2/13 00:00:00"
"181","池田歯科クリニック","0","21","9011302","沖縄県","島尻郡与那原町","上与那原４３５－２番地　１階","26.200271","127.747299","098-914-3523 ","","","","","","","","","","","","","","0","0","","","","1","1","2018/1/4 00:00:00","2018/2/13 00:00:00"
"182","つかざん歯科","0","21","9011117","沖縄県","島尻郡南風原町","字津嘉山１５６７","26.185325","127.711404","098-889-6838 ","","","","","","","","","","","","","","0","0","","","","1","1","2018/1/4 00:00:00","2018/2/13 00:00:00"
"183","高橋歯科医院","0","21","9011111","沖縄県","島尻郡南風原町","兼城５６３－１ ","26.195241","127.721677","098-889-5655 ","","","","","","","","","","","","","","0","0","","","","1","1","2018/1/4 00:00:00","2018/2/13 00:00:00"
"184","一日橋むらた歯科医院","0","21","9011111","沖縄県","島尻郡南風原町","兼城５１６－１","26.195896","127.719835","098-889-6480 ","","","","","","","","","","","","","","0","0","","","","1","1","2018/1/4 00:00:00","2018/2/13 00:00:00"
"185","けん歯科クリニック","0","21","9011117","沖縄県","島尻郡南風原町","津嘉山１５９７－３","26.184320","127.712584","098-889-0011 ","","","","","","","","","","","","","","0","0","","","","1","1","2018/1/4 00:00:00","2018/2/13 00:00:00"
"186","みなみ歯科医院","0","21","9011104","沖縄県","島尻郡南風原町","宮平２４８－５","26.198718","127.736023","098-888-1482 ","","","","","","","","","","","","","","0","0","","","","1","1","2018/1/4 00:00:00","2018/2/13 00:00:00"
"187","ムーミン歯科","0","21","9011117","沖縄県","島尻郡南風原町","津嘉山１７０９－３　フラッシュユキ１Ｆ","26.181603","127.714942","098-888-2728 ","098-888-2728","宇都宮　洋","","","","","","","","","","","","0","0","","バリアフリーな環境：車イス利用の方への対応可、トイレに手すり設置","","1","1","2018/1/4 00:00:00","2018/2/13 00:00:00"
"188","トムこども歯科クリニック","0","21","9011111","沖縄県","島尻郡南風原町","兼城７１０－１　１０３号 ","26.190311","127.729462","098-882-6480 ","","","","","","","","","","","","","","0","0","","","","1","1","2018/1/4 00:00:00","2018/2/13 00:00:00"
"189","よなみね歯科クリニック","0","21","9011104","沖縄県","島尻郡南風原町","宮平５９－２","26.197680","127.734164","098-800-7005 ","","","","","","","","","","","","","","0","0","","","","1","1","2018/1/4 00:00:00","2018/2/13 00:00:00"
"190","あっぷる歯科クリニック","0","21","9011117","沖縄県","島尻郡南風原町","津嘉山１４６７番地３","26.189091","127.709512","098-889-1882","098-889-1247","","","","","","","","","","","","","0","0","","","","1","1","2018/1/4 00:00:00","2018/2/13 00:00:00"
"191","メディカルプラザ歯科","0","21","9011103","沖縄県","島尻郡南風原町","与那覇２８３　メディカルプラザはえばる３Ｆ ","26.200415","127.738869","098-888-6480 ","","","","","","","","","","","","","","0","0","","","","1","1","2018/1/4 00:00:00","2018/2/13 00:00:00"
"192","はえばる歯科医院","0","21","9011116","沖縄県","島尻郡南風原町","字照屋３６８サンキャッスル１０２号","26.186755","127.727526","098-889-8788","","","","","","","","","","","","","","0","0","","","","1","1","2018/1/4 00:00:00","2018/2/13 00:00:00"
"193","まじきな歯科クリニック","0","21","9011105","沖縄県","島尻郡南風原町","新川２１５－３ ","26.204001","127.727140","098-996-1506 ","","眞境名　勉","","","","","12：00～14：00","","","","","","","0","0","","","","1","1","2018/1/4 00:00:00","2018/2/13 00:00:00"
"194","オキナワ・デンタルオフィス","0","21","9011117","沖縄県","島尻郡南風原町","字津嘉山１３３９番地１","26.191552","127.714111","098-888-2087","098-888-2088","下地恒太郎","","","","","","","","","","","","0","0","","","","1","1","2018/1/4 00:00:00","2018/2/13 00:00:00"
"195","つかやま歯科","0","21","9011117","沖縄県","島尻郡南風原町","字津嘉山１４０４番地２コーポＫＡＺＵ ","26.190847","127.710705","098-888-4182 ","","","","","","","","","","","","","","0","0","","","","1","1","2018/1/4 00:00:00","2018/2/13 00:00:00"
"196","みのる歯科","0","21","9011117","沖縄県","島尻郡南風原町","字津嘉山１３７１番地３","26.192852","127.713072","098-888-5489 ","","齊田　穣","","","","","","","","","","","","0","0","","バリアーな環境：車イス利用の方への対応可","","1","1","2018/1/4 00:00:00","2018/2/13 00:00:00"
"197","上地歯科医院","0","3","9010416","沖縄県","島尻郡八重瀬町","宜次７０６－４","26.175493","127.718689","098-998-2355 ","098-998-2327","上地智博","","10：00～12：00　／　14：00～17：00","10：00～12：00　／　14：00～17：00","10：00～12：00　／　14：00～17：00","10：00～12：00　／　14：00～17：00","10：00～12：00　／　14：00～17：00","10：00～12：00　／　14：00～17：00","日曜を除く祝祭日　10：00～12：00　／　14：00～17：00","","受付","","0","0","","","バリヤーフリーな環境：車イス対応可、障害者用トイレあり","1","1","2018/1/4 00:00:00","2018/3/2 00:00:00"
"198","こちんだ歯科クリニック","0","21","9010401","沖縄県","島尻郡八重瀬町","東風平３９６－１　１０１号","26.154775","127.721534","098-998-8715 ","","","","","","","","","","","","","","0","0","","","","1","1","2018/1/4 00:00:00","2018/2/13 00:00:00"
"199","ナガシマ歯科医院","0","21","9010512","沖縄県","島尻郡八重瀬町","具志３４２－９","26.120631","127.743366","098-998-1088 ","","","","","","","","","","","","","","0","0","","","","1","1","2018/1/4 00:00:00","2018/2/13 00:00:00"
"200","なんぶ歯科医院","0","21","9010401","沖縄県","島尻郡八重瀬町","東風平１１番地","26.152267","127.718851","098-998-5371 ","","","","","","","","","","","","","","0","0","","","","1","1","2018/1/4 00:00:00","2018/2/13 00:00:00"
"201","ちゅら歯科","0","21","9010405","沖縄県","島尻郡八重瀬町","伊覇３０９番地","26.162847","127.724653","098-998-0648 ","","","","","","","","","","","","","","0","0","","","","1","1","2018/1/4 00:00:00","2018/2/13 00:00:00"
"202","やえせ歯科","0","21","9010401","沖縄県","島尻郡八重瀬町","字東風平921-1　コーポサンライズ１Ｆ","26.150156","127.723445","098-998-7171 ","","","","","","","","","","","","","","0","0","","","","1","1","2018/1/4 00:00:00","2018/2/13 00:00:00"
"203","いちまる歯科口腔外科医院","0","21","9010401","沖縄県","島尻郡八重瀬町","字東風平４９３－６","26.154753","127.717768","098-987-1688 ","","","","","","","","","","","","","","0","0","","","","1","1","2018/1/4 00:00:00","2018/2/13 00:00:00"
"204","沖縄県口腔保健医療センター","0","21","9011105","沖縄県","島尻郡南風原町","字新川２１８番地１","26.205867","127.726740","098-888-0648 ","","","","","","","","","","","","","","0","0","","","","1","1","2018/1/4 00:00:00","2018/2/13 00:00:00"
"205","南部徳州会病院（歯科）","0","21","9010493","沖縄県","島尻郡八重瀬町","字外間１７１－１","26.178387","127.715626","098-998-3221","","","","","","","","","","","","","","0","0","","","","1","1","2018/1/29 00:00:00","2018/2/13 00:00:00"
"206","新垣薬局","0","22","9010361","沖縄県","糸満市","糸満989-28","26.128606","127.668345","098-992-2362","","","","","","","","","","","","","","0","0","","","","1","1","2018/1/4 00:00:00","2018/6/14 00:00:00"
"207","あはごん薬局","0","22","9010301","沖縄県","糸満市","阿波根1552-5","26.151768","127.672369","098-995-1256","","","","","","","","","","","","","","0","0","","","","1","1","2018/1/4 00:00:00","2018/6/14 00:00:00"
"208","南山薬局","1","18","9010362","沖縄県","糸満市","字真栄里908","26.113177","127.668831","098-995-1124","098-995-1134","伊敷　松太郎","","8:30-18:00","8:30-18:00","8:30-18:00","8:30-18:00","8:30-18:00","8:30-13:00","日祝日休み","伊敷　松太郎","","指定なし","1","0","","終末期の患者様に対応することも多く、医療用麻薬を備蓄しております。","・在宅患者訪問薬剤管理指導料：あり・居宅療養管理指導料：あり
・定休日：日・祝日
・夜間・休日の対応：可(電話、必要によっては訪問可能）
・受入れ可能な施設：患者宅・介護施設・グループホーム
・mail：nagomi@pearl.ocn.ne.jp","1","1","2018/1/4 00:00:00","2018/7/12 00:00:00"
"209","レモン薬局","1","18","9010302","沖縄県","糸満市","字潮平706-7","26.145641","127.671930","098-995-0023","098-995-0075","仲西　英雄","あり","9:00－18:30","9:00－18:30","9:00－18:30","9:00－12:30","9:00－18:30","9:00-17:00","日曜・祝日休み","平田　崇","管理薬剤師","指定なし","0","0","・ルーナ薬局（浦添市経塚676-1）","・地域に根差した薬局として、医療に貢献したいと考えています。","・在宅患者訪問薬剤管理指導料：あり・居宅療養管理指導料：あり
・夜間・祝日の対応：可（電話）
・24時間対応（要相談）
・受入れ可能な施設：患者宅・介護施設・グループホーム
・定休日：日曜・祝日
・mail：lemon995-0023@yahoo.co.jp　※ホームページ：あり","1","1","2018/1/4 00:00:00","2018/7/9 00:00:00"
"210","おれんじ薬局","0","22","9010361","沖縄県","糸満市","糸満1269","26.126012","127.669506","098-840-3272","","","","","","","","","","","","","","0","0","","","","1","1","2018/1/4 00:00:00","2018/6/14 00:00:00"
"211","有限会社　晴天堂薬局","0","22","9010305","沖縄県","糸満市","字西崎6丁目16-6","26.142433","127.669647","098-992-3158","","","","","","","","","","","","","","0","0","","","","1","1","2018/1/4 00:00:00","2018/6/14 00:00:00"
"212","ゆい薬局真栄里店","0","22","9010362","沖縄県","糸満市","字真栄里2024番地の3","26.120993","127.671284","098-994-4193","","","","","","","","","","","","","","0","0","","","","1","1","2018/1/4 00:00:00","2018/6/14 00:00:00"
"213","たんぽぽ薬局","0","22","9010302","沖縄県","糸満市","字潮平708番地19","26.146260","127.671505","098-992-4018","","","","","","","","","","","","","","0","0","","","","1","1","2018/1/4 00:00:00","2018/6/14 00:00:00"
"214","なかむら薬局","0","22","9010305","沖縄県","糸満市","字西崎2-7-1","26.143911","127.664916","098-851-8340","","","","","","","","","","","","","","0","0","","","","1","1","2018/1/4 00:00:00","2018/6/14 00:00:00"
"215","ゆい潮平薬局","0","22","9010302","沖縄県","糸満市","字潮平767番地19","26.149271","127.672063","098-992-6122","","","","","","","","","","","","","","0","0","","","","1","1","2018/1/4 00:00:00","2018/6/14 00:00:00"
"216","薬志堂薬局　真栄里店","0","22","9010362","沖縄県","糸満市","字真栄里2036番地1","26.121307","127.670128","098-987-1128","","","","","","","","","","","","","","0","0","","","","1","1","2018/1/4 00:00:00","2018/7/13 00:00:00"
"217","ゆい西崎薬局","0","22","9010305","沖縄県","糸満市","字西崎2丁目26番11号","26.140594","127.662656","098-851-7600","","","","","","","","","","","","","","0","0","","","","1","1","2018/1/4 00:00:00","2018/6/14 00:00:00"
"218","なごみ薬局","1","18","9010364","沖縄県","糸満市","潮崎町2-1-13","26.124165","127.667281","098-851-9944","098-851-9966","伊敷　美佳","","9:00－18:00","9:00－18:00","9:00－17:00","9:00－18:00","9:00－19:30","9:00-13:00","日祝日休み","","","指定なし","1","0","","糸満市内にて、ご施設、個人宅での訪問を主に行っています。日、祝日での問い合わせなども対応させてもらっています。緊急時に連絡のとりやすい薬局です。","・在宅患者訪問薬剤管理指導料：あり
・居宅療養管理指導料：あり
・定休日：日・祝日（水曜午後は訪問対応中）
・夜間・祝日の対応：可（電話・必要によっては訪問可能）
・受入れ可能な施設：患者宅・介護施設・グループホーム
・mail：nagomi@pearl.ocn.ne.jp
","1","1","2018/1/4 00:00:00","2018/7/12 00:00:00"
"219","ほがらか薬局","0","22","9010301","沖縄県","糸満市","阿波根873番地-1","26.148677","127.687307","098-995-6665","","","","","","","","","","","","","","0","0","","","","1","1","2018/1/4 00:00:00","2018/2/13 00:00:00"
"220","りんご調剤薬局　糸満店","1","18","9010334","沖縄県","糸満市","字大度515-1","26.097462","127.707392","098-997-4778","","","","","","","","","","","","","","0","0","","","","1","1","2018/1/4 00:00:00","2018/6/14 00:00:00"
"221","万年堂薬局　平良店","1","18","9010212","沖縄県","豊見城市","平良103-3","26.168962","127.693762","098-850-3290","098-856-7209","新垣　梓","http://facebook.com/@mannendo.ph.tairaten","8:30-19:00","8:30-19:00","8:30-19:00","8:30-19:00","8:30-19:00","8:30-16:00","日祝日休み","代表者：新垣　梓","管理薬剤師","指定なし","0","0","・併設する病院は特にありませんが、主に松岡医院、豊見城中央病院、沖縄協同病院など　月に約100医療機関を受け付けしています。","・1977年創業、豊見城団地近くの薬局です。市販薬の販売、保険調剤、健康相談など
　地域に根差した健康づくりの提供を目標としています。","・在宅患者訪問薬剤管理指導料：あり
・居宅療養管理指導料：あり
・24時間対応（要相談）
・定休日：日曜・祝祭日
・夜間・休日の対応：可（電話）
・受入れ可能な施設：患者宅・グループホーム
・mail：mannendo@woody.ocn.ne.jp","1","1","2018/1/4 00:00:00","2018/7/17 00:00:00"
"222","豊見城薬局","1","18","9010244","沖縄県","豊見城市","宜保266-21","26.176283","127.676901","098-852-2811","098-850-2415","平尾　慎一郎","","8:30-19:15","8:30-19:15","8:30-19:15","8:30-19:15","8:30-19:15","お休み","日祝日休み","長谷川　幸司","管理薬剤師","指定なし","0","0","","医療用麻薬処方対応可。","・在宅患者訪問薬剤管理指導料：あり・居宅療養管理指導料：あり
・定休日：土・日・祝祭日
・24時時間対応：不可
・夜間・祝日の対応：可（電話）
・受入れ可能な施設：患者宅
・mail：tomishiro@qesetmedical.jp","1","1","2018/1/4 00:00:00","2018/7/12 00:00:00"
"223","とみー薬局","0","22","9010241","沖縄県","豊見城市","豊見城445-1","26.182868","127.677615","098-851-0266","","","","","","","","","","","","","","0","0","","","","1","1","2018/1/4 00:00:00","2018/2/13 00:00:00"
"224","サンアイ薬局","0","22","9010244","沖縄県","豊見城市","宜保310-7","26.177360","127.675632","098-850-0005","","","","","","","","","","","","","","0","0","","","","1","1","2018/1/4 00:00:00","2018/2/13 00:00:00"
"225","ミッキー薬局","0","22","9010244","沖縄県","豊見城市","宜保152番地　ｺｰﾎﾟﾊﾟｰｸｻｲﾄﾞ1-A","26.178104","127.677758","098-840-2007","","","","","","","","","","","","","","0","0","","","","1","1","2018/1/4 00:00:00","2018/2/13 00:00:00"
"226","しんせい薬局　豊見城店","0","22","9010244","沖縄県","豊見城市","宜保306-1","26.177580","127.676651","098-856-9901","","","","","","","","","","","","","","0","0","","","","1","1","2018/1/4 00:00:00","2018/2/13 00:00:00"
"227","あいらんど薬局　豊見城中央病院前店","0","22","9010244","沖縄県","豊見城市","宜保266-21番地の16","26.176283","127.676901","098-852-2425","","","","","","","","","","","","","","0","0","","","","1","1","2018/1/4 00:00:00","2018/2/13 00:00:00"
"228","会営薬局　とよみ","0","22","9010244","沖縄県","豊見城市","宜保271番地1","26.176391","127.676296","098-856-4160","","","","","","","","","","","","","","0","0","","","","1","1","2018/1/4 00:00:00","2018/2/13 00:00:00"
"229","ミント薬局　豊見城店","0","22","9010241","沖縄県","豊見城市","豊見城549番地8","26.180060","127.680754","098-850-7666","","","","","","","","","","","","","","0","0","","","","1","1","2018/1/4 00:00:00","2018/2/13 00:00:00"
"230","ハープ薬局　とみしろ店","0","22","9010243","沖縄県","豊見城市","上田1-1","26.176047","127.680035","098-851-2100","","","","","","","","","","","","","","0","0","","","","1","1","2018/1/4 00:00:00","2018/2/13 00:00:00"
"231","いちご薬局　真玉橋店","0","22","9010201","沖縄県","豊見城市","字真玉橋285-11F","26.190165","127.690036","098-996-3115","","","","","","","","","","","","","","0","0","","","","1","1","2018/1/4 00:00:00","2018/2/13 00:00:00"
"232","そうごう薬局　豊見城店","0","22","9010213","沖縄県","豊見城市","高嶺395-103","26.167410","127.696734","098-891-7771","","","","","","","","","","","","","","0","0","","","","1","1","2018/1/4 00:00:00","2018/2/13 00:00:00"
"233","瀬底薬局","0","22","9011414","沖縄県","南城市","佐敷津波古157","26.183064","127.774395","098-947-0511","","","","","","","","","","","","","","0","0","","","","1","1","2018/1/4 00:00:00","2018/2/13 00:00:00"
"234","りんりん堂薬局","1","18","9011208","沖縄県","南城市","大里字平良2568-2","26.180504","127.747520","098-882-0051","098-882-0052","林　伸嘉","","8:30-18:00","8:30-18:00","8:30-13:00","8:30-18:00","8:30-18:00","8:30-13:00","日曜祝日休み","林　伸嘉","管理薬剤師","指定なし","0","0","","・訪問地域：当局を中心とする半径16km圏域（保険適用範囲）・地域に根差した、患者様志向の薬局を目指しています。","・在宅患者訪問薬剤管理指導料：あり
・居宅療養管理指導料：あり
・夜間・祝日の対応：可（電話）（必要によっては訪問可能）
・24時間対応：要相談
・受入れ可能な施設：患者宅・介護施設・グループホーム
・定休日：日曜・祝日・旧盆・年末年始・水・土曜日の午後
・mail：rinrindou@river.ocn.ne.jp","1","1","2018/1/4 00:00:00","2018/7/10 00:00:00"
"235","すこやか薬局　大里店","0","22","9011204","沖縄県","南城市","大里稲嶺2025番地2","26.169563","127.740254","098-946-8004","","","","","","","","","","","","","","0","0","","","","1","1","2018/1/4 00:00:00","2018/2/13 00:00:00"
"236","ハイビスカス薬局","0","22","9010615","沖縄県","南城市","玉城堀川697-1","26.130014","127.762756","098-949-1801","","","","","","","","","","","","","","0","0","","","","1","1","2018/1/4 00:00:00","2018/2/13 00:00:00"
"237","はくあい薬局","0","22","9011414","沖縄県","南城市","佐敷津波古西原2310-2","26.186756","127.775398","098-947-3377","","","","","","","","","","","","","","0","0","","","","1","1","2018/1/4 00:00:00","2018/2/13 00:00:00"
"238","JR九州ドラッグイレブン薬局　　佐敷店","0","22","9011414","沖縄県","南城市","佐敷津波古1226番地1","26.186562","127.774606","098-947-1157","","","","","","","","","","","","","","0","0","","","","1","1","2018/1/4 00:00:00","2018/2/13 00:00:00"
"239","くはら薬局","1","18","9011505","沖縄県","南城市","知念字久原693番地","26.187000","127.807338","098-852-5740","","","","","","","","","","","","","","0","0","","","","1","1","2018/1/4 00:00:00","2018/4/16 00:00:00"
"240","つつじ薬局ヨナ原","0","22","9011303","沖縄県","島尻郡与那原町","与那原2918","26.202902","127.749132","098-946-7372","","","","","","","","","","","","","","0","0","","","","1","1","2018/1/4 00:00:00","2018/2/13 00:00:00"
"241","いじゅの木薬局","0","22","9011303","沖縄県","島尻郡与那原町","与那原1118","26.210468","127.759336","098-944-6330","","","","","","","","","","","","","","0","0","","","","1","1","2018/1/4 00:00:00","2018/2/13 00:00:00"
"242","いちご薬局　","0","22","9011302","沖縄県","島尻郡与那原町","上与那原340-2","26.200271","127.751985","098-944-1309","","","","","","","","","","","","","","0","0","","","","1","1","2018/1/4 00:00:00","2018/2/13 00:00:00"
"243","ヴァインドラッグあがり浜薬局","0","22","9011304","沖縄県","島尻郡与那原町","東浜681番地1-2","26.209690","127.764103","098-987-5535","","","","","","","","","","","","","","0","0","","","","1","1","2018/1/4 00:00:00","2018/2/13 00:00:00"
"244","みのり薬局　","0","22","9011304","沖縄県","島尻郡与那原町","東浜90-4","26.205629","127.757215","098-946-4690","","","","","","","","","","","","","","0","0","","","","1","1","2018/1/4 00:00:00","2018/2/13 00:00:00"
"245","さかき薬局","0","22","9011117","沖縄県","島尻郡南風原町","字津嘉山1593","26.184139","127.712326","098-889-8600","","","","","","","","","","","","","","0","0","","","","1","1","2018/1/4 00:00:00","2018/2/13 00:00:00"
"246","あおぞら薬局","0","22","9011103","沖縄県","島尻郡南風原町","字与那覇236-1","26.202518","127.747905","098-835-6633","","","","","","","","","","","","","","0","0","","","","1","1","2018/1/4 00:00:00","2018/2/13 00:00:00"
"247","寿薬局","0","22","9011104","沖縄県","島尻郡南風原町","字宮平498","26.200813","127.732775","098-889-5775","","","","","","","","","","","","","","0","0","","","","1","1","2018/1/4 00:00:00","2018/2/13 00:00:00"
"248","クローバー薬局","0","22","9011105","沖縄県","島尻郡南風原町","字新川423-7","26.210747","127.725270","098-888-2455","","","","","","","","","","","","","","0","0","","","","1","1","2018/1/4 00:00:00","2018/2/13 00:00:00"
"249","すこやか薬局　新川店","1","18","9011105","沖縄県","島尻郡南風原町","字新川101-3番地","26.207109","127.723529","098-882-7111","","","","","","","","","","","","","","0","0","","","","1","1","2018/1/4 00:00:00","2018/6/14 00:00:00"
"250","サン薬局","0","22","9011105","沖縄県","島尻郡南風原町","字新川67-10","26.204306","127.723559","098-888-5840","","","","","","","","","","","","","","0","0","","","","1","1","2018/1/4 00:00:00","2018/2/13 00:00:00"
"251","クララ薬局","0","22","9011114","沖縄県","島尻郡南風原町","字神里434番地の1","26.172802","127.728019","098-889-8787","","","","","","","","","","","","","","0","0","","","","1","1","2018/1/4 00:00:00","2018/2/13 00:00:00"
"252","会営薬局　医療センター前","0","22","9011105","沖縄県","島尻郡南風原町","字新川218番地10","26.205534","127.725615","098-963-8940","","","","","","","","","","","","","","0","0","","","","1","1","2018/1/4 00:00:00","2018/2/13 00:00:00"
"253","とくりん薬局","0","22","9011103","沖縄県","島尻郡南風原町","字与那覇283番地","26.200415","127.738869","098-963-8940","","","","","","","","","","","","","","0","0","","","","1","1","2018/1/4 00:00:00","2018/2/13 00:00:00"
"254","ハープ薬局　つかざん点","0","22","9011117","沖縄県","島尻郡南風原町","字津嘉山1490番地　メディカルプラザつかざん１Ｆ","26.189832","127.708442","098-888-3363","","","","","","","","","","","","","","0","0","","","","1","1","2018/1/4 00:00:00","2018/2/13 00:00:00"
"255","ひだまり薬局","0","22","9011105","沖縄県","島尻郡南風原町","字新川214-2","26.203787","127.727370","098-987-1065","","","","","","","","","","","","","","0","0","","","","1","1","2018/1/4 00:00:00","2018/2/13 00:00:00"
"256","新生堂薬局　琉球つかざん店","0","22","9011117","沖縄県","島尻郡南風原町","字津嘉山1315-1","26.194015","127.712919","098-940-6020","","","","","","","","","","","","","","0","0","","","","1","1","2018/1/4 00:00:00","2018/2/13 00:00:00"
"257","あにも調剤薬局","1","18","9010405","沖縄県","島尻郡八重瀬町","字伊覇65-24","26.159428","127.721926","098-998-1189","098-998-0989","荒井　悦子","","9:00－18:30","9:00－12:00","9:00－18:30","9:00－12:00","9:00－18:30","休み","日曜祝日休み","荒井　千春","","指定なし","0","0","","","・在宅患者訪問薬剤管理指導料：あり・居宅療養管理指導料：あり
・24時間対応(要相談）
・夜間・祝日の対応（電話可）
・定休日：土・日・祝日
・受入れ可能な施設：患者宅","1","1","2018/1/4 00:00:00","2018/7/11 00:00:00"
"258","りんご調剤薬局　東風平店","1","18","9010401","沖縄県","島尻郡八重瀬町","字東風平1209-16","26.156211","127.719140","098-987-4768","098-987-4797","代表取締役：吉田　将司","http://ringo-chozai:jp/","9:00－16:00","9:00－16:00","9:00－13:00","9:00－16:00","9:00－16:00","9:00－13:00","日曜祝日休み","池間　功","管理薬剤師","指定なし","0","0","","","・1人薬剤師ですので、対応に時間がかかる可能性あり。・在宅患者訪問薬剤管理指導料：あり
・居宅療養管理指導料：あり
・24時間対応（要相談）
・受入れ可能な施設：患者宅・介護施設・グループホーム
・定休日：水・土曜日午後
・夜間・祝日の対応：不可","1","1","2018/1/4 00:00:00","2018/7/11 00:00:00"
"259","訪問看護ステーション　ひまわり","0","4","9010313","沖縄県","糸満市","字賀数406番地の1","26.151949","127.692237","098-994-0888","098-994-0888","","","","","","","","","","","","","0","0","","","","1","1","2018/1/4 00:00:00","2018/2/13 00:00:00"
"260","訪問看護ステーション　テンタス","0","4","9010361","沖縄県","糸満市","糸満989番地の74","26.128003","127.667342","098-996-4715","098-996-4716","西銘成子","","9：00～18：00","9：00～18：00","9：00～18：00","9：00～18：00","9：00～18：00","休み","日・祝日は休み（原則）","","","","0","0","","精神科・心療内科通院の患者様に特化した訪問看護です。きめ細かい対応を心がけています。","２４時間緊急時連絡体制あり。職員体制：看護師（4人）","1","1","2018/1/4 00:00:00","2018/2/13 00:00:00"
"261","友愛会訪問看護ステーション","0","4","9010362","沖縄県","糸満市","真栄里870番地","26.112382","127.670956","098-840-3290","098-840-3292","比嘉國郎","http://www.yuuai.or.jp","8：30～17：30","8：30～17：30","8：30～17：30","8：30～17：30","8：30～17：30","8：30～12：30","日曜日・祝祭日は休み","渡嘉敷","","","0","0","ヘルパーステーション、居宅介護支援事業所、通所リハビリ","エンドオブライフケアに関して、緩和ケア病棟、ペインクリニック、往診もあり連携が取りやすい。","２４時間緊急時連絡体制あり。職員体制：看護師（10人）","1","1","2018/1/4 00:00:00","2018/2/13 00:00:00"
"262","訪問看護ステーション　おもととよみの杜","0","4","9010215","沖縄県","豊見城市","渡嘉敷150番地","26.172711","127.683488","098-851-0100","098-851-0108","石井　和博","","8：30～17：30","8：30～17：30","8：30～17：30","8：30～17：30","8：30～17：30","8：30～12：30","日曜日・祝日・1/1～1/3、旧盆（ウークイ）は休み","呉屋京子","","","0","0","大浜第二病院、居宅介護支援事業所、訪問介護、デイサービス、介護老人保健施設、特別養護老人ホーム","神経難病の利用者が多く、リハビリと連携しながら訪問している。小児から高齢者まで人工呼吸器装着の患者も受け入れ可能。","２４時間緊急時連絡体制あり。
職員体制：看護師（６人）、理学療法士（４人）、作業療法士（３人）、言語聴覚士（３人）","1","1","2018/1/4 00:00:00","2018/2/13 00:00:00"
"263","エクスプロア訪問看護ステーション","0","4","9010241","沖縄県","豊見城市","豊見城975-10","26.192276","127.683389","098-856-5181","098-856-5182","","","","","","","","","","","","","0","0","","","","1","1","2018/1/4 00:00:00","2018/2/13 00:00:00"
"264","ウィル訪問看護ステーション豊見城","0","4","9010205","沖縄県","豊見城市","根差部690-2","26.189813","127.690661","098-856-8150","098-894-6050","山川　将人","http://www.wyl.co.jp/","8:30～17：30","8:30～17：30","8:30～17：30","8:30～17：30","8:30～17：30","8:30～17：30","8:30～17：30　（定休日なし）","山川将人","","","1","0","","24時間365日対応しています。","２４時間緊急時連絡体制あり。職員体制：看護師（５人）","1","1","2018/1/4 00:00:00","2018/2/13 00:00:00"
"265","沖縄メディカル訪問看護ステーション","0","4","9011415","沖縄県","南城市","佐敷字新開１番地344","26.175494","127.777329","098-947-3556","098-947-0336","大山朝賢","http://www.o-medical.jp","8：30～17：30","8：30～17：30","8：30～17：30","8：30～17：30","8：30～17：30","8：30～17：30","日曜日・祝祭日、12/31～1/3は休み","照屋妙子","","","0","0","沖縄メディカル居宅介護支援事業所、デイサービス、通所リハビリ、特定施設入居施設「福寿苑」","訪問看護ステーションですが、理学療法士によるリハビリテーションも対応しています。また、関連施設や他のサービス事業所と連携をとり、サービスの質向上を目指しています。","２４時間緊急時連絡体制あり。夜間の対応は電話、必要に応じて訪問可能。
職員体制：看護師（4人）、理学療法士（２人）","1","1","2018/1/4 00:00:00","2018/2/13 00:00:00"
"266","信山会訪問看護ステーション南城つはこ","0","4","9011414","沖縄県","南城市","佐敷津波古432番地　","26.184224","127.774548","098-988-0638","098-947-4570","小山信二","","9：00～18：00","9：00～18：00","9：00～18：00","9：00～18：00","9：00～18：00","9：00～12：00（隔週）","第２・第４土曜日・日曜日・祝日は休み","島根","医事課（南城つはこクリニック）","","0","0","南城つはこクリニック、上与那原クリニック","親切・丁寧","２４時間緊急時連絡体制あり。夜間は電話での対応。祝日対応は不可。","1","1","2018/1/4 00:00:00","2018/2/13 00:00:00"
"267","訪問看護ステーション　ひなた","0","4","9010608","沖縄県","南城市","玉城親慶原153番地２","26.155524","127.780857","098-948-7180","098-948-7181","小谷　篤","","8：30～17：30","8：30～17：30","8：30～17：30","8：30～17：30","8：30～17：30","","土・日・祝日は休み","小谷・片倉・金城","","","0","0","","住み慣れたご自宅で安心して生活するにあたり、私たち「訪問看護ステーションひなた」が看護を提供いたします。","２４時間緊急時連絡体制あり。職員体制：看護師（８人）","1","1","2018/1/4 00:00:00","2018/2/13 00:00:00"
"268","訪問看護ステーション　ぶどうの木","0","4","9011201","沖縄県","南城市","大里字嶺井515番地4S-1","26.196186","127.748060","098-945-2641","098-945-2641","","","","","","","","","","","","","0","0","","","","1","1","2018/1/4 00:00:00","2018/2/13 00:00:00"
"269","訪問看護ステーション　はえばる","0","4","9011105","沖縄県","島尻郡南風原町","新川272番地17","26.206576","127.725895","098-888-3405","098-888-3413","仲座　明美","","8：30～17：30","8：30～17：30","8：30～17：30","8：30～17：30","8：30～17：30","","土・日・祝祭日、1/31～1/3、慰霊の日は休み（原則）","宮城愛子","","","1","0","居宅介護支援事業所はえばる","小児から高齢者まで医療依存度の高い方（人工呼吸器を装着している方等）精神、難病、終末期の方など幅広く対応しています。24時間・365日真心を込めて在宅療養を支援します。","２４時間緊急時連絡体制あり。営業日以外であっても24時間365日訪問看護を必要とする利用者に対応しています。
職員体制：看護師（９人）※内２名は介護支援専門員有資格者","1","1","2018/1/4 00:00:00","2018/2/13 00:00:00"
"270","ふれあい老人訪問看護ステーション","0","4","9011111","沖縄県","島尻郡南風原町","字兼城642番地の１　","26.194913","127.725976","098-889-5652","098-835-6166","大城玲子","","8：30～17：30","8：30～17：30","8：30～17：30","8：30～17：30","8：30～17：30","8：30～12：30","土曜日の午後・日曜日・旧盆（ウンケー）・12/31～1/3は休み　／　祝日　8：30～17：30","大城玲子","","","0","0","居宅介護支援事業所、訪問リハビリ、訪問介護","0歳～１００歳過ぎまでの利用者がおり幅広い年代で対応しています。看護師７名、リハビりスタッフ３名がいるので受け入れＯＫです。","２４時間緊急連絡体制あり。
職員体制：看護師7人、理学療法士２人、作業療法士１人","1","1","2018/1/4 00:00:00","2018/2/13 00:00:00"
"271","ふたば 訪問看護ステーション","0","4","9011111","沖縄県","島尻郡南風原町","字兼城274番地の1","26.196799","127.729476","098-889-8913","098-889-8923","田本あゆみ","http://www.futaba.okinawa/index.php","8：30～17：30","8：30～17：30","8：30～17：30","8：30～17：30","8：30～17：30","","土・日・祝祭日・旧盆・12/31～1/3は休み","","","","0","0","ふたばケアプランセンター（居宅介護支援サービス）","・０～100歳超えの方まで全年齢が対象です。・ホットできる温かな看護を目指し、ご本人と家族の希望にそった満足いただけるサービスを心がけています。
・医療依存度の高い（人工呼吸器、在宅酸素、ターミナルケア、ＩＶＨ）利用者も多く訪問しています。
・積極的にリハビリにも取り組んでいます。（可動域訓練、ストレッチ、呼吸リハビリなど）","２４時間緊急連絡体制あり
営業時間：必要時（症状悪化や不安定期、在宅導入時）は休日も対応可。
職員体制：看護師（６人）","1","1","2018/1/4 00:00:00","2018/2/13 00:00:00"
"272","訪問看護ステーション　はっぴー","0","4","9011116","沖縄県","島尻郡南風原町","照屋299番地１","26.182090","127.725847","098-882-6170","098-882-6171","親川　郁子","","8：30～17：30","8：30～17：30","8：30～17：30","8：30～17：30","8：30～17：30","","土･日・祝日・12/31～1/3は休み","管理者：大城友美","","","0","0","居宅介護支援、訪問介護、介護タクシー、相談支援、デイサービス（３ケ所）、住宅型有料老人ホーム","・利用者が主体であり、利用者の立場に立ったサービスの提供。・利用者の「生活の質」を高めるサービスの提供。
・利用者やご家族、地域の皆様、又、関係機関と連携を密にし、信頼関係に応えられるサービス提供。
・個々の職員が自己の役割を自覚し、互いに尊重しあいチームワークを第一とした職場づくり。
　上記の事業理念のもと、より良いサービスの提供に努めております。","24時間緊急連絡体制あり。
職員体制（看護師５人：准看護師を含む）","1","1","2018/1/4 00:00:00","2018/2/13 00:00:00"
"273","訪問看護ステーション　いこい","0","4","9010417","沖縄県","島尻郡八重瀬町","外間80番地　","26.177815","127.714589","098-835-7881","098-835-7880","鈴木隆夫","","8：30～17：00","8：30～17：00","8：30～17：00","8：30～17：00","8：30～17：00","8：30～12：30","日曜日・12/31～1/3は休み　/　祝日は8：30～17：00","中本　香","","","0","0","ヘルパーステーションいこい（訪問介護）","小児から高齢者まで幅広いライフステージに対応。24時間緊急連絡体制を整え緊急時に対応し、地域の皆様へ安心し寄り添う看護を提供します。","職員体制（看護師５名）","1","1","2018/1/4 00:00:00","2018/2/13 00:00:00"
"274","訪問看護ステーションゆいゆい","0","4","9010411","沖縄県","島尻郡八重瀬町","友寄901番地１　コーポラス大城102号","26.173679","127.719054","098-998-1868","098-995-9296","野口怜美","","9：00～18：00","9：00～18：00","9：00～18：00","9：00～18：00","9：00～18：00","","土・日・祝日は休み（原則）　","野口","","","0","0","","","２４時間緊急連絡体制あり。必要に応じて祝日対応可。職員体制：看護師４人","1","1","2018/1/4 00:00:00","2018/2/13 00:00:00"
"275","南部病院　訪問リハビリテーション","0","5","9010362","沖縄県","糸満市","真栄里870番地","26.112119","127.670309","098-994-0501","098-994-0506","城間　寛","http://www.yuuai.or.jp","8:30～17：30","8:30～17：30","8:30～17：30","8:30～17：30","8:30～17：30","8:30～17：30","日・祝日・年末年始（12/30～1/3）は休み","喜納聡子","リハビリテーション科","","0","0","豊見城中央病院、介護老人保健施設「友愛園」","","介護予防サービス実施可能。","1","1","2018/1/4 00:00:00","2018/3/14 00:00:00"
"276","とよみ生協病院訪問リハビリテーション","0","5","9010201","沖縄県","豊見城市","字真玉橋５９３番地の１","26.193073","127.687322","098-850-7955","098-850-1829","","","","","","","","","","","","","0","0","","","","1","1","2018/1/4 00:00:00","2018/2/13 00:00:00"
"277","豊見城中央病院　訪問リハビリテーション","0","5","9010243","沖縄県","豊見城市","字上田25番地","26.175905","127.676090","098-850-3811","098-850-3810","","","","","","","","","","","","","0","0","","","","1","1","2018/1/4 00:00:00","2018/3/14 00:00:00"
"278","医療法人おもと会大浜第二病院","0","5","9010215","沖縄県","豊見城市","字渡嘉敷150番地","26.172711","127.683488","098-851-0103","098-851-0200","","","","","","","","","","","","","0","0","","","","1","1","2018/1/4 00:00:00","2018/2/13 00:00:00"
"279","沖縄第一病院　訪問リハビリテーション事業所","0","5","9011111","沖縄県","島尻郡南風原町","字兼城642-1","26.194913","127.725976","098-888-1151","098-889-6615","山元総一郎","","8：30～17：30","8：30～17：30","8：30～17：30","8：30～17：30","8：30～17：30","休み","休み","山元総一郎","","月～金（8：30～12：30/13：30～17：30）","0","0","沖縄第一病院、訪問看護ステーション","","介護予防サービスの実施可能","1","1","2018/1/4 00:00:00","2018/3/14 00:00:00"
"280","南部徳洲会病院　訪問リハビリテーション","0","5","9010493","沖縄県","島尻郡八重瀬町","字外間171番地1","26.178387","127.715626","098-998-3221","098-998-3220","島田　将尚","http://www.nantoku.org","9：00～17：00","9：00～17：00","9：00～17：00","9：00～17：00","9：00～17：00","9：00～17：00","休み","島田・末吉","リハビリテーション（病院２階）","12：00～13：30","0","0","・病院　・クリニック・特定介護付き有料老人ホーム
・居宅介護支援事業所　・訪問看護ステーション　・通所リハビリテーション事業所　・通所介護","","訪問リハビリにあたっては、作業療法士、言語聴覚士は病院と兼務のため要相談。
介護予防サービスの実施可能。","1","1","2018/1/4 00:00:00","2018/3/14 00:00:00"
"281","ホームヘルパーステーション友愛","0","9","9010362","沖縄県","糸満市","真栄里870","26.112382","127.670956","098-840-3293","098-840-3292","与那嶺薫","http://www.yuuai.or.jp","8:30～17：30","8:30～17：30","8:30～17：30","8:30～17：30","8:30～17：30","8:30～17：30","日・祝祭日は休み　※暴風警報発令、バス運休時は休み","与那嶺薫","ホームヘルパーステーション友愛","月～土（8：30～17：30）","0","0","南部病院通所リハンビリテーション友愛会ケアプランセンター南部
友愛会訪問看護ステーション","同事業所内の連携が取りやすいです。","介護予防サービスの実施あり。
24時間、早朝・夜間の対応については要相談。","1","1","2018/1/4 00:00:00","2018/3/19 00:00:00"
"282","いとまんシャトー訪問介護センター","0","9","9010325","沖縄県","糸満市","大里927-2","26.135339","127.691729","098-995-2208","098-995-2358","大城初美","http://www.syato.ai-itoman.or.jp/home-care","6：30～21：00","6：30～21：00","6：30～21：00","6：30～21：00","6：30～21：00","6：30～21：00","6：30～21：00　定休日なし","照屋幸子","","月～土（8：30～17：30）","0","1","特別養護老人ホームいとまんシャトー、短期入所生活介護（ショートスティ）いとまんシャトー指定通所介護センター、いとまんシャトー指定居宅介護支援センター","平均年齢はやや高めですが、その分、利用者様の心に寄り添うケアを大切にしています。","介護予防サービスの実施あり。
24時間、早朝・夜間の対応について要相談。","1","1","2018/1/4 00:00:00","2018/3/19 00:00:00"
"283","ヘルパーステーション西崎","0","9","9010306","沖縄県","糸満市","西崎町三丁目379番地　1F","26.145524","127.670136","098-994-4418","098-994-6931","","","","","","","","","","","","","0","0","","","","1","1","2018/1/4 00:00:00","2018/2/13 00:00:00"
"284","ヘルパーステーションかがやき","0","9","9010315","沖縄県","糸満市","照屋129番地","26.131298","127.681130","098-851-3294","098-851-3295","","","","","","","","","","","","","0","0","","","","1","1","2018/1/4 00:00:00","2018/2/13 00:00:00"
"285","訪問介護事業所　珊瑚","0","9","9010364","沖縄県","糸満市","潮崎町4丁目8-13","26.116440","127.663627","098-840-3535","098-840-3381","金城幸則","","8：30～17：30","8：30～17：30","8：30～17：30","8：30～17：30","8：30～17：30","8：30～17：30","日曜日は休み　/　祝日はサービス提供あり（8：30～17：30）","与那嶺洋子","訪問介護事業所珊瑚","","0","0","居宅介護支援事業所珊瑚デイサービスセンター珊瑚","和気あいあいとした雰囲気の事業所です。お気軽に相談に訪れて下さい。","介護予防サービスの実施あり。
早朝の対応は可、夜間の対応については要相談。","1","1","2018/1/4 00:00:00","2018/3/19 00:00:00"
"286","ヘルパーステーションみなみ","0","9","9010361","沖縄県","糸満市","糸満1796-2","26.126548","127.678922","098-995-1709","098-996-3113","川平惠次郎","http://oki-fukushi.or.jp","8：30～17：30","8：30～17：30","8：30～17：30","8：30～17：30","8：30～17：30","8：30～17：30","日曜日、年末年始（12/31～1/3）は休み　/　祝祭日はサービス提供あり（8：30～17：30）","金澤いずみ、金城のり子","ヘルパーステーション","月～金（9：00～17：00）","0","0","居宅介護支援事業所みなみ、デイサービスセンターみなみ有料老人ホームみなみ（5床）、有料老人ホームてるや（9床）
配食サービスみなみ
","障害者総合支援法の事業所指定も受けています。","介護予防サービス提供の実施あり。
早朝・夜間の対応について要相談。
営業時間は8：30～17：30だが、サービス提供は年中無休（6：00～21：00）","1","1","2018/1/4 00:00:00","2018/3/19 00:00:00"
"287","ヘルパーステーション里のガーデン","0","9","9010325","沖縄県","糸満市","字大里623番地７","26.129948","127.689643","098-996-2832","098-996-2846","","","","","","","","","","","","","0","0","","","","1","1","2018/1/4 00:00:00","2018/2/13 00:00:00"
"288","訪問介護ステーション　おもととよみの杜","0","9","9010215","沖縄県","豊見城市","渡嘉敷150番地","26.172711","127.683488","098-851-0100","098-851-0200","","","","","","","","","","","","","0","0","","","","1","1","2018/1/4 00:00:00","2018/2/13 00:00:00"
"289","桜山荘介護支援ｾﾝﾀｰ豊見城","0","9","9010212","沖縄県","豊見城市","字平良188-23","26.169079","127.694890","098-840-5888","098-840-5666","松岡半七","","8：30～17：30","8：30～17：30","8：30～17：30","8：30～17：30","8：30～17：30","休み","日曜日は休み　/　祝日はサービス提供あり（8：30～17：30）","松田、比嘉、具志堅、玉寄","","","1","0","介護老人保健施設「桜山荘」　、通所介護、小規模多機能型居宅介護、通所リハビリテーション、認知症対応型生活介護、就労移行、就労継続Ａ・Ｂ事業、児童デイサービス　ほか","24時間・365日サービス提供しています。","介護予防サービスの実施あり。
24時間、早朝・夜間の対応は可能。","1","1","2018/1/4 00:00:00","2018/3/19 00:00:00"
"290","ヘルパーステーションみのり","0","9","9010241","沖縄県","豊見城市","豊見城600-1","26.182449","127.681829","098-996-2231","098-996-1216","恩田眞弓","","8：30～17：30","8：30～17：30","8：30～17：30","8：30～17：30","8：30～17：30","休み","日曜日は休み　/　祝日はサービス提供あり（8：30～17：30）","新海","","月～金（8：30～17：30）","0","0","わかば居宅介護支援事業所、有料老人ホームどんぐりデイサービスふたば、デイサービスゆず、グループホームつぼみ","利用者様の一人一人に寄り添ったケアを心がけています。","介護予防サービスの実施あり。
24時間、早朝・夜間の対応については要相談。","1","1","2018/1/4 00:00:00","2018/3/19 00:00:00"
"291","沖縄偕生会ホームヘルパーステーション","0","9","9010244","沖縄県","豊見城市","宜保148番地　仲元マンション101号室","26.178909","127.678465","098-987-9701","098-987-7420","","","","","","","","","","","","","0","0","","","","1","1","2018/1/4 00:00:00","2018/2/13 00:00:00"
"292","ヘルパーステーションＨＯＰＥ","0","9","9010243","沖縄県","豊見城市","上田315番地　１Ｆ","26.175061","127.673668","098-856-4512","098-856-4512","","","","","","","","","","","","","0","0","","","","1","1","2018/1/4 00:00:00","2018/2/13 00:00:00"
"293","ケアステーション　愛あい","0","9","9010241","沖縄県","豊見城市","豊見城20番地　コーポおおた101号室","26.184952","127.681768","098-996-2983","098-996-2984","","","","","","","","","","","","","0","0","","","","1","1","2018/1/4 00:00:00","2018/2/13 00:00:00"
"294","ヘルパーステーションちばる","0","9","9010203","沖縄県","豊見城市","長堂180-29","26.186381","127.708390","098-996-5486","098-996-5487","宮城直美","","9：00～18：00","9：00～18：00","9：00～18：00","9：00～18：00","9：00～18：00","休み","日・祝祭日、旧盆、年末年始（12/30～1/3）は休み","宮城直美","","","0","0","","自動車有償運送許可を取得しています。","介護予防サービスの実施あり。早朝・夜間の対応について可能。","1","1","2018/1/4 00:00:00","2018/3/19 00:00:00"
"295","小谷園指定訪問介護センター","0","9","9011413","沖縄県","南城市","佐敷小谷238番地の１","26.173430","127.763391","098-947-0990","098-947-0993","","","","","","","","","","","","","0","0","","","","1","1","2018/1/4 00:00:00","2018/2/13 00:00:00"
"296","訪問介護事業所　栞","0","9","9010606","沖縄県","南城市","玉城糸数672-1","26.155551","127.764605","098-948-1714","098-948-3906","外間さとみ","","0：00～24：00","0：00～24：00","0：00～24：00","0：00～24：00","0：00～24：00","0：00～24：00","0：00～24：00　定休日なし（24時間365日対応）","高良昌美・外間さとみ","","月～金（9：00～18：00）　但し12/31～1/3は休み","0","0","居宅介護支援事業所彩有料老人ホームあがり","医療ケアが必要な方においては、原則、訪問診療、訪問看護等と連携において訪問介護サービス提供が可能。
","介護予防サービスの実施なし。
早朝・夜間の対応については要相談。","1","1","2018/1/4 00:00:00","2018/3/19 00:00:00"
"297","南城市社協ヘルパーステーション","0","9","9011206","沖縄県","南城市","大里仲間918","26.175588","127.745184","098-882-8639","098-882-8862","阿嘉広雄","http://www.nanjo-shakyo.com","8:30～17：30","8:30～17：30","8:30～17：30","8:30～17：30","8:30～17：30","8:30～17：30","日曜日は休み　","城間、玉城、内間","","","0","0","南城市社協ケアプランセンター南城市社協大里いきいきデイサービスセンター
南城市社協知念デイサービスセンターゆいゆい","利用者に関する情報やサービス提供に当たっての留意事項をメール伝達を行いサービス向上につとめています。
訪問介護員のうち介護福祉士の占める割合が高く研修計画を作成し定期的に実施しています。
登録ヘルパー含め20人、明るく笑顔が多い事業所です。","介護予防サービスの実施あり。
休日、営業時間外については、電話などにより24時間常時連絡が可能な体制です。
24時間対応については要相談。","1","1","2018/1/4 00:00:00","2018/3/19 00:00:00"
"298","訪問介護 百十","0","9","9011414","沖縄県","南城市","佐敷字津波古81番地","26.182268","127.771490","098-917-1862","098-917-1863","","","","","","","","","","","","","0","0","","","","1","1","2018/1/4 00:00:00","2018/2/13 00:00:00"
"299","訪問介護　ようき","0","9","9011414","沖縄県","南城市","佐敷津波古1354番地1","26.185026","127.773637","098-852-5339","098-947-2339","","","","","","","","","","","","","0","0","","","","1","1","2018/1/4 00:00:00","2018/2/13 00:00:00"
"300","しらゆりの園訪問介護ステーション","0","9","9011207","沖縄県","南城市","大里古堅820-1","26.192970","127.740627","098-917-0624","098-917-0654","大山須賀子","http://www.sirayuri.or.jp","8:30～17：30","8:30～17：30","8:30～17：30","8:30～17：30","8:30～17：30","8:30～17：30","日曜日、年末年始（12/31～1/2）は休み　/　祝日はサービス提供あり（8：30～17：30）","大城早美","","","1","0","しらゆりの園地域密着型特別養護老人ホームおおざとしらゆりの園デイサービスおおざと","自宅で必要な介護サービスを提供し、利用者様がいつまでも在宅で元気に自分らしく過ごせるよう支援いたします。","介護予防サービスの実施あり。
","1","1","2018/1/4 00:00:00","2018/3/19 00:00:00"
"301","訪問介護ステーション　うりずん","0","9","9011301","沖縄県","島尻郡与那原町","板良敷1281番地１","26.190748","127.769856","098-871-9555","098-944-7003","","","","","","","","","","","","","0","0","","","","1","1","2018/1/4 00:00:00","2018/2/13 00:00:00"
"302","ファミリー訪問介護事業所","0","9","9011303","沖縄県","島尻郡与那原町","字与那原3585番地","26.200130","127.758454","098-946-1224","098-946-1210","","","","","","","","","","","","","0","0","","","","1","1","2018/1/4 00:00:00","2018/2/13 00:00:00"
"303","ケアネット　ひかり","0","9","9011303","沖縄県","島尻郡与那原町","与那原1145番地2","26.212407","127.759884","098-946-0395","098-946-0332","","","","","","","","","","","","","0","0","","","","1","1","2018/1/4 00:00:00","2018/2/13 00:00:00"
"304","琉球ライフ　ヘルパーステーション","0","9","9011303","沖縄県","島尻郡与那原町","与那原70番地　峰アパート102号","26.200401","127.761778","098-988-1933","098-988-1933","","","","","","","","","","","","","0","0","","","","1","1","2018/1/4 00:00:00","2018/2/13 00:00:00"
"305","与那原日の出園ホームヘルパーステーション","0","9","9011303","沖縄県","島尻郡与那原町","与那原3782番地の1","26.197736","127.763573","098-946-5138","098-945-3010","","","","","","","","","","","","","0","0","","","","1","1","2018/1/4 00:00:00","2018/2/13 00:00:00"
"306","ヘルパーステーションひまわり","0","9","9011304","沖縄県","島尻郡与那原町","字東浜78番地5　ディアフラッツ東浜105号","26.203084","127.763335","098-943-7817","098-943-7821","宇根幹雄","","9：00～18：00","9：00～18：00","9：00～18：00","9：00～18：00","9：00～18：00","第１土曜日のみ9：00～18：00","日・祝祭日、年末年始（12/29～1/3）は休み","安谷屋花子","ヘルパーステーションひまわり","月～金（9：00～18：00）","0","0","児童デイサービスくろーばー","質の高い支援を提供します。","介護予防サービスの実施あり。早朝・夜間の対応は可能。","1","1","2018/1/4 00:00:00","2018/3/16 00:00:00"
"307","ケアセンター　ちゅらら","0","9","9011303","沖縄県","島尻郡与那原町","字与那原3861","26.199261","127.764803","098-988-9251","098-988-9473","渡邊陽子","","9：00～18：00","9：00～18：00","9：00～18：00","9：00～18：00","9：00～18：00","休み","日・祝祭日は休み（電話などで24時間365日対応可）","渡邊陽子","","","0","0","介護保険サービス、 障がい福祉サービス（居宅、重度、同行援助、移動支援）を行っています。","当社は小さな会社ならではのアットホームな雰囲気、温かいサポートをモットーに提供しています。住み慣れた地域で暮らし続けられるようサポート致します。","介護予防サービスの実施あり。２４時間対応については要相談。
","1","1","2018/1/4 00:00:00","2018/3/19 00:00:00"
"308","沖縄第一病院　訪問介護サービス","0","9","9011111","沖縄県","島尻郡南風原町","兼城642-1","26.194913","127.725976","098-889-8380","098-835-6166","宮城信雄","http://www.odh.or.jp","8:30～17：30","8:30～17：30","8:30～17：30","8:30～17：30","8:30～17：30","8:30～17：30","日曜日・祝祭日、年末年始（12/31～1/3）は休み","瑞慶覧　伸","沖縄第一病院訪問介護サービス","","0","0","","","介護予防サービスの実施あり。早朝・夜間の対応については要相談。
訪問介護のご利用時間は相談可能です。","1","1","2018/1/4 00:00:00","2018/3/16 00:00:00"
"309","南風原町社協指定訪問介護事業所","0","9","9011104","沖縄県","島尻郡南風原町","宮平697番地10　　南風原町社会福祉センター","26.191813","127.732659","098-889-3213","098-889-6269","","","","","","","","","","","","","0","0","","","","1","1","2018/1/4 00:00:00","2018/2/13 00:00:00"
"310","訪問介護はっぴー","0","9","9011104","沖縄県","島尻郡南風原町","字照屋299-1　桃テラス102号","26.182080","127.725865","098-882-6170","098-882-6171","親川郁子","","8：30～17：30","8：30～17：30","8：30～17：30","8：30～17：30","8：30～17：30","休み","日・祝祭日、年末年始（12/31～1/3）は休み","崎浜秀哉","","","0","0","併設して訪問看護があり、タイアップしての対応が可。介護タクシーあり。","介護保険、 障がい福祉サービス等の幅広いサービスを実施しています。一度、ご相談ください。","介護予防サービスの実施あり。
24時間対応や早朝・夜間の対応については要相談。","1","1","2018/1/4 00:00:00","2018/3/16 00:00:00"
"311","ケアセンター　野の花","0","9","9011111","沖縄県","島尻郡南風原町","兼城263番地の23","26.196577","127.729659","098-889-3184","098-889-3343","","","","","","","","","","","","","0","0","","","","1","1","2018/1/4 00:00:00","2018/2/13 00:00:00"
"312","ヘルパーステーション かなさ","0","9","9011116","沖縄県","島尻郡南風原町","照屋253番地の6東宝ビル19　102号","26.182938","127.725242","098-987-1925","098-987-1926","","","","","","","","","","","","","0","0","","","","1","1","2018/1/4 00:00:00","2018/2/13 00:00:00"
"313","ヘルパーステーション　ひかり","0","9","9011117","沖縄県","島尻郡南風原町","津嘉山1613番地の5与座アパート102号","26.186341","127.711951","098-996-1377","098-996-1376","","","","","","","","","","","","","0","0","","","","1","1","2018/1/4 00:00:00","2018/2/13 00:00:00"
"314","訪問介護事業所ことぶき","0","9","9011103","沖縄県","島尻郡南風原町","与那覇390番地6､1階","26.199644","127.743616","098-851-3478","098-851-3479","","","","","","","","","","","","","0","0","","","","1","1","2018/1/4 00:00:00","2018/2/13 00:00:00"
"315","ヘルパーステーション　いこい","0","9","9010417","沖縄県","島尻郡八重瀬町","外間80","26.177815","127.714589","098-835-7671","098-835-7880","中本　香","","8：30～17：00","8：30～17：00","8：30～17：00","8：30～17：00","8：30～17：00","8：30～17：00","日曜日、年末年始は休み　/　祝日はサービス提供あり（8：30～17：00）","神谷、松原","","","0","0","訪問看護ステーションいこい、南部徳洲会病院","","介護予防サービスの実施（Ｈ30.3月終了）24時間、早朝・夜間の対応については要相談。","1","1","2018/1/4 00:00:00","2018/3/16 00:00:00"
"316","ときわ苑訪問介護ステーション","0","9","9010414","沖縄県","島尻郡八重瀬町","当銘378-1","26.151644","127.698723","098-998-1200","098-998-8099","金城　武","http://tokiwaen.or.jp","7:00～23：00","7:00～23：00","7:00～23：00","7:00～23：00","7:00～23：00","7:00～23：00","7:00～23：00　　","大城浩美、仲村春美","訪問介護ステーション","8：30～17：30","0","0","","","定休日なし（但し、台風時は休み）介護予防サービスの実施あり。
早朝・夜間の対応は可能。","1","1","2018/1/4 00:00:00","2018/3/16 00:00:00"
"317","じーなの会訪問介護ステーション","0","9","9010416","沖縄県","島尻郡八重瀬町","字宜次664番地の1","26.174826","127.718712","098-998-9789","098-998-9791","","","","","","","","","","","","","0","0","","","","1","1","2018/1/4 00:00:00","2018/2/13 00:00:00"
"318","転生園指定訪問介護事業所","0","9","9010514","沖縄県","島尻郡八重瀬町","字安里670","26.122628","127.728018","098-998-7652","098-998-7653","幸地　伸","http://tenshoen.or.jp","8:30～17：30","8:30～17：30","8:30～17：30","8:30～17：30","8:30～17：30","8:30～17：30","日曜日、年始（1/1、1/2）は休み　/　祝日はサービス提供あり（8：30～17：30）","島袋　緑","","月～土（10：00～16：00）","0","0","","介護福祉士の資格がある訪問介護員が対応します。","早朝・夜間の対応については要相談。介護予防サービスの実施あり。","1","1","2018/1/4 00:00:00","2018/3/16 00:00:00"
"319","訪問介護サービス　あしみじ","0","9","9010512","沖縄県","島尻郡八重瀬町","字具志1099-1","26.132068","127.710886","098-998-6680","098-998-6658","森下里美","","8：30～17：30","8：30～17：30","8：30～17：30","8：30～17：30","8：30～17：30","休み","日曜日は休み　/　祝日はサービス提供あり（8：30～17：30）","大城滝子、小波津美由紀","","8：30～17：30","1","0","","","介護予防サービスの実施あり。早朝・夜間の対応については要相談。","1","1","2018/1/4 00:00:00","2018/3/16 00:00:00"
"320","訪問介護　寿々","0","9","9010406","沖縄県","島尻郡八重瀬町","屋宜原110番地の3　アイニティ（2－Ｄ号室）","26.161458","127.728440","098-835-7470","098-835-7471","","","","","","","","","","","","","0","0","","","","1","1","2018/1/4 00:00:00","2018/2/13 00:00:00"
"321","イリーゼ八重瀬訪問介護センター","0","9","9010501","沖縄県","島尻郡八重瀬町","長毛159-1","26.132005","127.754699","098-840-7861","098-840-7862","","","","","","","","","","","","","0","0","","","","1","1","2018/1/4 00:00:00","2018/2/13 00:00:00"
"322","ヘルパーステーション新緑の里","0","9","9010401","沖縄県","島尻郡八重瀬町","東風平192番地８","26.150609","127.716463","098-998-4165","098-998-4168","","","","","","","","","","","","","0","0","","","","1","1","2018/1/4 00:00:00","2018/2/13 00:00:00"
"323","指定居宅介護支援事業所白寿園","0","7","9010311","沖縄県","糸満市","字武富175番地の1","26.165512","127.693737","098-995-4165","098-995-4165","","","","","","","","","","","","","0","0","","","","1","1","2018/1/4 00:00:00","2018/2/13 00:00:00"
"324","居宅支援センター勝連","0","7","9010331","沖縄県","糸満市","字真栄平1026番地","26.115831","127.714566","098-997-3104","098-997-2457","","","","","","","","","","","","","0","0","","","","1","1","2018/1/4 00:00:00","2018/2/13 00:00:00"
"325","ひめゆりクリニック指定居宅介護支援事業所","0","7","9010344","沖縄県","糸満市","伊原107番地の１","26.094737","127.684739","098-997-3702","098-997-3703","","","","","","","","","","","","","0","0","","","","1","1","2018/1/4 00:00:00","2018/2/13 00:00:00"
"326","特別養護老人ﾎｰﾑ沖縄偕生園","0","7","9010341","沖縄県","糸満市","字小波蔵321番地","26.107350","127.668765","098-852-4100","098-852-4104","","","","","","","","","","","","","0","0","","","","1","1","2018/1/4 00:00:00","2018/2/13 00:00:00"
"327","居宅介護支援センター寿","0","7","9010362","沖縄県","糸満市","真栄里323番地","26.117818","127.670959","098-992-5375","098-995-1536","","","","","","","","","","","","","0","0","","","","1","1","2018/1/4 00:00:00","2018/2/13 00:00:00"
"328","居宅介護支援事業所あかり","0","7","9010361","沖縄県","糸満市","糸満１５０５番地の３","26.125723","127.674386","098-995-3774","098-995-1371","","","","","","","","","","","","","0","0","","","","1","1","2018/1/4 00:00:00","2018/2/13 00:00:00"
"329","友愛会ケアプランセンター南部","0","7","9010362","沖縄県","糸満市","真栄里８７０番地","26.112382","127.670956","098-852-3007","098-840-3292","","","","","","","","","","","","","0","0","","","","1","1","2018/1/4 00:00:00","2018/2/13 00:00:00"
"330","居宅介護支援西崎","0","7","9010306","沖縄県","糸満市","西崎町三丁目379番地　1F","26.145524","127.670136","098-994-4418","098-994-6931","","","","","","","","","","","","","0","0","","","","1","1","2018/1/4 00:00:00","2018/2/13 00:00:00"
"331","居宅介護支援　ピンク","0","7","9010302","沖縄県","糸満市","字潮平６３２番地の３","26.144830","127.673377","098-894-5484","098-894-5493","","","","","","","","","","","","","0","0","","","","1","1","2018/1/4 00:00:00","2018/2/13 00:00:00"
"332","居宅介護支援センター　てぃんがーら","0","7","9010315","沖縄県","糸満市","照屋807番地コーポカトレア1階","26.132469","127.684241","098-851-3786","098-851-3786","","","","","","","","","","","","","0","0","","","","1","1","2018/1/4 00:00:00","2018/2/13 00:00:00"
"333","いとまんシャトー指定居宅介護支援センター","0","7","9010325","沖縄県","糸満市","大里927番地の２","26.135339","127.691729","098-995-2208","098-995-2358","","","","","","","","","","","","","0","0","","","","1","1","2018/1/4 00:00:00","2018/2/13 00:00:00"
"334","まつの木ケアプランセンター","0","7","9010303","沖縄県","糸満市","兼城618番地","26.135578","127.670722","098-995-3719","098-995-3719","","","","","","","","","","","","","0","0","","","","1","1","2018/1/4 00:00:00","2018/2/13 00:00:00"
"335","居宅介護支援事業所　珊瑚","0","7","9010364","沖縄県","糸満市","潮崎町四丁目8-13","26.116440","127.663627","098-840-3535","098-840-3381","","","","","","","","","","","","","0","0","","","","1","1","2018/1/4 00:00:00","2018/2/13 00:00:00"
"336","ケアプランセンター　いずみ","0","7","9010315","沖縄県","糸満市","照屋1258番地１","26.133028","127.686866","098-994-2222","098-994-2225","","","","","","","","","","","","","0","0","","","","1","1","2018/1/4 00:00:00","2018/2/13 00:00:00"
"337","居宅介護支援事業所みなみ","0","7","9010361","沖縄県","糸満市","糸満1796番地の２","26.126554","127.678961","098-995-6433","098-995-1702","","","","","","","","","","","","","0","0","","","","1","1","2018/1/4 00:00:00","2018/2/13 00:00:00"
"338","居宅介護支援事業所いちまん","0","7","9010362","沖縄県","糸満市","真栄里2045番地２","26.119654","127.669920","098-996-1295","098-996-1296","","","","","","","","","","","","","0","0","","","","1","1","2018/1/4 00:00:00","2018/2/13 00:00:00"
"339","うの花　居宅介護支援事業所","0","7","9010361","沖縄県","糸満市","糸満989-11","26.129081","127.668178","098-996-4911","098-996-4922","","","","","","","","","","","","","0","0","","","","1","1","2018/1/4 00:00:00","2018/2/13 00:00:00"
"340","沖縄医療生活協同組合　とよみ生協病院指定居宅介護支援事業所","0","7","9010201","沖縄県","豊見城市","字真玉橋５９３番地の1","26.193073","127.687322","098-850-7951","098-856-0400","","","","","","","","","","","","","0","0","","","","1","1","2018/1/4 00:00:00","2018/2/13 00:00:00"
"341","ケアプランサービス養生の里","0","7","9010231","沖縄県","豊見城市","字我那覇291番地の25B-1","26.183846","127.672773","098-856-5836","098-850-3125","","","","","","","","","","","","","0","0","","","","1","1","2018/1/4 00:00:00","2018/2/13 00:00:00"
"342","平成苑居宅介護支援事業所","0","7","9010235","沖縄県","豊見城市","字名嘉地217番地の2","26.174355","127.664369","098-856-7222","098-856-5581","","","","","","","","","","","","","0","0","","","","1","1","2018/1/4 00:00:00","2018/2/13 00:00:00"
"343","居宅介護支援事業所おもととよみの杜","0","7","9010215","沖縄県","豊見城市","字渡嘉敷150番地","26.172711","127.683488","098-851-0123","098-851-0200","","","","","","","","","","","","","0","0","","","","1","1","2018/1/4 00:00:00","2018/2/13 00:00:00"
"344","良長園指定居宅介護支援事業所","0","7","9010204","沖縄県","豊見城市","字金良88番地","26.179467","127.703519","098-850-1202","098-850-1362","","","","","","","","","","","","","0","0","","","","1","1","2018/1/4 00:00:00","2018/2/13 00:00:00"
"345","合資会社ひかり指定居宅介護支援事業所","0","7","9010212","沖縄県","豊見城市","字平良145番地の3102号","26.167718","127.694743","098-851-4637","098-851-4583","","","","","","","","","","","","","0","0","","","","1","1","2018/1/4 00:00:00","2018/2/13 00:00:00"
"346","桜山荘介護支援専門員センター","0","7","9010212","沖縄県","豊見城市","平良188番地23","26.169079","127.694890","098-996-2510","098-996-2512","","","","","","","","","","","","","0","0","","","","1","1","2018/1/4 00:00:00","2018/2/13 00:00:00"
"347","居宅介護支援サービス　かがやき","0","7","9010213","沖縄県","豊見城市","高嶺３２２番地","26.166912","127.695598","098-850-2566","098-850-2568","","","","","","","","","","","","","0","0","","","","1","1","2018/1/4 00:00:00","2018/2/13 00:00:00"
"348","わかば居宅介護支援事業所","0","7","9010241","沖縄県","豊見城市","豊見城６００番地１","26.182449","127.681829","098-850-5516","098-996-1216","","","","","","","","","","","","","0","0","","","","1","1","2018/1/4 00:00:00","2018/2/13 00:00:00"
"349","居宅介護支援事業所とよさき","0","7","9010223","沖縄県","豊見城市","字翁長８６９番地　１階","26.161148","127.666877","098-891-6982","098-891-6566","","","","","","","","","","","","","0","0","","","","1","1","2018/1/4 00:00:00","2018/2/13 00:00:00"
"350","豊見城偕生園ケアプランセンター","0","7","9010244","沖縄県","豊見城市","宜保148番地　仲元ﾏﾝｼｮﾝ101号室","26.178909","127.678465","098-987-5300","098-987-7420","","","","","","","","","","","","","0","0","","","","1","1","2018/1/4 00:00:00","2018/2/13 00:00:00"
"351","居宅介護支援事業所　華々","0","7","9010242","沖縄県","豊見城市","高安600-4番地ヒルコート101号室","26.186771","127.687316","098-851-3387","098-851-3087","","","","","","","","","","","","","0","0","","","","1","1","2018/1/4 00:00:00","2018/2/13 00:00:00"
"352","ケアプランセンターゆたか","0","7","9010213","沖縄県","豊見城市","字高嶺326番地1","26.167532","127.690621","098-840-6532","098-840-6591","","","","","","","","","","","","","0","0","","","","1","1","2018/1/4 00:00:00","2018/2/13 00:00:00"
"353","居宅介護支援事業所　ねね","0","7","9010203","沖縄県","豊見城市","長堂402番地2サンガーデン101号","26.186892","127.707715","098-987-1122","098-987-1123","","","","","","","","","","","","","0","0","","","","1","1","2018/1/4 00:00:00","2018/2/13 00:00:00"
"354","居宅介護支援事業所　まごころ","0","7","9010242","沖縄県","豊見城市","高安385番地　大城アパート108号","26.176519","127.683327","098-850-6260","098-850-6261","","","","","","","","","","","","","0","0","","","","1","1","2018/1/4 00:00:00","2018/2/13 00:00:00"
"355","居宅介護支援事業所　うえた","0","7","9010243","沖縄県","豊見城市","上田１番地１７","26.175733","127.680360","098-856-7077","098-856-6811","","","","","","","","","","","","","0","0","","","","1","1","2018/1/4 00:00:00","2018/2/13 00:00:00"
"356","指定居宅介護支援事業所　ファミリーサポート","0","7","9010211","沖縄県","豊見城市","饒波1118番地","26.182503","127.700124","098-851-3784","098-851-3355","","","","","","","","","","","","","0","0","","","","1","1","2018/1/4 00:00:00","2018/2/13 00:00:00"
"357","友愛会ケアプランセンター　豊見城","0","7","9010244","沖縄県","豊見城市","宜保266番地４寛マンション101号","26.176482","127.676636","098-850-4165","098-850-4188","","","","","","","","","","","","","0","0","","","","1","1","2018/1/4 00:00:00","2018/2/13 00:00:00"
"358","居宅介護支援事業所　みんなの介護相談所","0","7","9010241","沖縄県","豊見城市","豊見城64","26.186724","127.680623","098-996-3227","098-996-3178","","","","","","","","","","","","","0","0","","","","1","1","2018/1/4 00:00:00","2018/2/13 00:00:00"
"359","介護保険相談所リリーフ","0","7","9010241","沖縄県","豊見城市","豊見城437番地11.１ビル2-Ａ号室","26.182410","127.678838","098-894-6786","098-894-6787","","","","","","","","","","","","","0","0","","","","1","1","2018/1/4 00:00:00","2018/2/13 00:00:00"
"360","みなみ野居宅介護支援事務所","0","7","9011208","沖縄県","南城市","大里平良2584番地の２　２F","26.180534","127.747928","098-945-8822","098-945-8838","","","","","","","","","","","","","0","0","","","","1","1","2018/1/4 00:00:00","2018/2/13 00:00:00"
"361","おおざと信和苑指定居宅介護支援事業所","0","7","9011204","沖縄県","南城市","大里字稲嶺1014番地","26.162747","127.737224","098-946-8101","098-946-8839","","","","","","","","","","","","","0","0","","","","1","1","2018/1/4 00:00:00","2018/2/13 00:00:00"
"362","居宅介護支援朝日","0","7","9010607","沖縄県","南城市","玉城字喜良原526番地","26.159853","127.772121","098-949-7157","098-948-7638","","","","","","","","","","","","","0","0","","","","1","1","2018/1/4 00:00:00","2018/2/13 00:00:00"
"363","小谷園指定居宅介護支援センター","0","7","9011413","沖縄県","南城市","佐敷字小谷238番地の1","26.173430","127.763391","098-947-0990","098-947-0993","","","","","","","","","","","","","0","0","","","","1","1","2018/1/4 00:00:00","2018/2/13 00:00:00"
"364","東雲の丘指定居宅介護支援事業所","0","7","9011203","沖縄県","南城市","大里字大城1392番地","26.167414","127.765113","098-946-2051","098-946-1128","","","","","","","","","","","","","0","0","","","","1","1","2018/1/4 00:00:00","2018/2/13 00:00:00"
"365","居宅介護支援事業所　彩","0","7","9010606","沖縄県","南城市","玉城糸数６７２－１","26.155551","127.764605","098-948-1714","098-948-3906","","","","","","","","","","","","","0","0","","","","1","1","2018/1/4 00:00:00","2018/2/13 00:00:00"
"366","南城市社協ケアプランセンター","0","7","9011206","沖縄県","南城市","大里仲間９１８番地","26.175588","127.745184","098-882-8639","098-882-8862","","","","","","","","","","","","","0","0","","","","1","1","2018/1/4 00:00:00","2018/2/13 00:00:00"
"367","指定居宅介護支援事業所　ケアプラン青の空","0","7","9010612","沖縄県","南城市","玉城當山8番地1","26.142772","127.767008","098-852-6111","098-852-6112","","","","","","","","","","","","","0","0","","","","1","1","2018/1/4 00:00:00","2018/2/13 00:00:00"
"368","こころ居宅介護支援事業所","0","7","9010611","沖縄県","南城市","玉城字富里173-2(1Ｆ)","26.146307","127.768019","098-948-3931","098-948-3931","","","","","","","","","","","","","0","0","","","","1","1","2018/1/4 00:00:00","2018/2/13 00:00:00"
"369","沖縄メディカル居宅介護支援事業所","0","7","9011415","沖縄県","南城市","佐敷新開1番地344","26.175494","127.777329","098-947-3556","098-947-3550","","","","","","","","","","","","","0","0","","","","1","1","2018/1/4 00:00:00","2018/2/13 00:00:00"
"370","花あかり　居宅介護支援事業所","0","7","9010617","沖縄県","南城市","玉城愛地361番地","26.160678","127.744779","098-948-4071","098-948-4072","","","","","","","","","","","","","0","0","","","","1","1","2018/1/4 00:00:00","2018/2/13 00:00:00"
"371","居宅介護支援　ようき","0","7","9011414","沖縄県","南城市","佐敷津波古1354番地1","26.185026","127.773637","098-852-5339","098-947-2339","","","","","","","","","","","","","0","0","","","","1","1","2018/1/4 00:00:00","2018/2/13 00:00:00"
"372","えがおケアセンター","0","7","9011204","沖縄県","南城市","大里稲嶺１３１７番１","26.159006","127.732343","098-852-7840","098-852-7841","","","","","","","","","","","","","0","0","","","","1","1","2018/1/4 00:00:00","2018/2/13 00:00:00"
"373","居宅介護支援事業所　里のうさぎ","0","7","9011204","沖縄県","南城市","大里稲嶺2101-83コーポ呉屋103","26.170606","127.741239","098-946-8183","098-946-8183","","","","","","","","","","","","","0","0","","","","1","1","2018/1/4 00:00:00","2018/2/13 00:00:00"
"374","しらゆりの園指定居宅介護支援事業所","0","7","9011207","沖縄県","南城市","大里古堅820番地1","26.192994","127.740583","098-917-0624","098-917-0654","","","","","","","","","","","","","0","0","","","","1","1","2018/1/4 00:00:00","2018/2/13 00:00:00"
"375","介護支援センター　あまね","0","7","9010619","沖縄県","南城市","玉城屋嘉部455番１","26.146074","127.760545","098-852-6125","098-852-6126","","","","","","","","","","","","","0","0","","","","1","1","2018/1/4 00:00:00","2018/2/13 00:00:00"
"376","ケアサポートセンターすまいる南城","0","7","9011407","沖縄県","南城市","字つきしろ１６７８番地２２５","26.160115","127.791969","098-988-4182","098-988-4183","","","","","","","","","","","","","0","0","","","","1","1","2018/1/4 00:00:00","2018/2/13 00:00:00"
"377","ケアプランセンターほっ会期","0","7","9011407","沖縄県","南城市","つきしろ1232番地137","26.159582","127.793008","098-948-2400","098-948-2400","","","","","","","","","","","","","0","0","","","","1","1","2018/1/4 00:00:00","2018/2/13 00:00:00"
"378","居宅介護支援センターうりずん","0","7","9011301","沖縄県","島尻郡与那原町","板良敷1281番地の１","26.190748","127.769856","098-944-7000","098-944-7003","","","","","","","","","","","","","0","0","","","","1","1","2018/1/4 00:00:00","2018/2/13 00:00:00"
"379","有限会社ファミリー看護婦家政婦紹介所","0","7","9011303","沖縄県","島尻郡与那原町","与那原3585番地","26.200130","127.758454","098-946-1224","098-946-1210","","","","","","","","","","","","","0","0","","","","1","1","2018/1/4 00:00:00","2018/2/13 00:00:00"
"380","居宅介護支援サービス　ふくよか","0","7","9011303","沖縄県","島尻郡与那原町","与那原431番地","26.202027","127.757287","098-944-2139","098-944-5502","","","","","","","","","","","","","0","0","","","","1","1","2018/1/4 00:00:00","2018/2/13 00:00:00"
"381","与那原在宅ケアセンター居宅介護支援事業所","0","7","9011303","沖縄県","島尻郡与那原町","与那原１７９２番地１","26.206257","127.753329","098-945-8415","098-944-5710","","","","","","","","","","","","","0","0","","","","1","1","2018/1/4 00:00:00","2018/2/13 00:00:00"
"382","ケアプランひかり","0","7","9011303","沖縄県","島尻郡与那原町","与那原１１４５番地２","26.212407","127.759884","098-946-0395","098-946-0332","","","","","","","","","","","","","0","0","","","","1","1","2018/1/4 00:00:00","2018/2/13 00:00:00"
"383","与那原日の出園指定居宅介護支援事業所","0","7","9011303","沖縄県","島尻郡与那原町","字与那原3782番地の1","26.197736","127.763573","098-946-4764","098-945-3010","","","","","","","","","","","","","0","0","","","","1","1","2018/1/4 00:00:00","2018/2/13 00:00:00"
"384","居宅介護支援事業所 さらばんじぃ","0","7","9011303","沖縄県","島尻郡与那原町","字与那原3687番2","26.201199","127.756473","098-944-7406","098-944-7407","","","","","","","","","","","","","0","0","","","","1","1","2018/1/4 00:00:00","2018/2/13 00:00:00"
"385","ほがらか居宅介護支援事業所","0","7","9011303","沖縄県","島尻郡与那原町","与那原1122番地　","26.210604","127.759800","098-882-8082","098-882-8106","","","","","","","","","","","","","0","0","","","","1","1","2018/1/4 00:00:00","2018/2/13 00:00:00"
"386","ケアプランセンター　うみちか","0","7","9011304","沖縄県","島尻郡与那原町","東浜17番地の16","26.207329","127.761875","098-882-0088","098-882-0089","","","","","","","","","","","","","0","0","","","","1","1","2018/1/4 00:00:00","2018/2/13 00:00:00"
"387","沖縄第一病院指定居宅介護支援事業所","0","7","9011111","沖縄県","島尻郡南風原町","兼城642番地の１","26.194913","127.725976","098-889-5302","098-835-6166","","","","","","","","","","","","","0","0","","","","1","1","2018/1/4 00:00:00","2018/2/13 00:00:00"
"388","居宅介護支援事業所はえばる","0","7","9011105","沖縄県","島尻郡南風原町","新川272番地17","26.206576","127.725895","098-888-3405","098-888-3413","","","","","","","","","","","","","0","0","","","","1","1","2018/1/4 00:00:00","2018/2/13 00:00:00"
"389","ふたば　ケアプランセンター","0","7","9011111","沖縄県","島尻郡南風原町","字兼城274番地の1","26.196799","127.729476","098-889-8913","098-889-8923","","","","","","","","","","","","","0","0","","","","1","1","2018/1/4 00:00:00","2018/2/13 00:00:00"
"390","嬉の里指定居宅介護支援事業所","0","7","9011105","沖縄県","島尻郡南風原町","字新川538番地","26.203659","127.728314","098-888-0591","098-889-8420","","","","","","","","","","","","","0","0","","","","1","1","2018/1/4 00:00:00","2018/2/13 00:00:00"
"391","あい　介護センター","0","7","9011117","沖縄県","島尻郡南風原町","津嘉山１１１４－１","26.193857","127.718541","098-894-4568","098-894-4138","","","","","","","","","","","","","0","0","","","","1","1","2018/1/4 00:00:00","2018/2/13 00:00:00"
"392","居宅介護支援はっぴー","0","7","9011104","沖縄県","島尻郡南風原町","字照屋299番地1　桃テラス102号室","26.182080","127.725865","098-882-6170","098-882-6171","","","","","","","","","","","","","0","0","","","","1","1","2018/1/4 00:00:00","2018/2/13 00:00:00"
"393","ケアセンター　野の花","0","7","9011111","沖縄県","島尻郡南風原町","兼城263番地の23","26.196577","127.729659","098-889-3184","098-889-3343","","","","","","","","","","","","","0","0","","","","1","1","2018/1/4 00:00:00","2018/2/13 00:00:00"
"394","居宅介護支援ｾﾝﾀｰ　「とき」","0","7","9011104","沖縄県","島尻郡南風原町","宮平４２６番地１９","26.205751","127.730317","098-888-0515","098-888-0516","","","","","","","","","","","","","0","0","","","","1","1","2018/1/4 00:00:00","2018/2/13 00:00:00"
"395","はえばる日の出園居宅介護支援事業所","0","7","9011103","沖縄県","島尻郡南風原町","字与那覇４４８番地の１","26.199377","127.740508","098-946-5138","098-945-3010","","","","","","","","","","","","","0","0","","","","1","1","2018/1/4 00:00:00","2018/2/13 00:00:00"
"396","居宅介護支援センター　ベストかねぐすく","0","7","9011111","沖縄県","島尻郡南風原町","兼城２６５－１０","26.196224","127.728776","098-888-4151","098-888-4152","","","","","","","","","","","","","0","0","","","","1","1","2018/1/4 00:00:00","2018/2/13 00:00:00"
"397","居宅支援事業所　縁","0","7","9011111","沖縄県","島尻郡南風原町","兼城132番地ｱﾊﾟｰﾄﾒﾝﾄあかみね103","26.193590","127.727713","098-882-7220","098-882-7221","","","","","","","","","","","","","0","0","","","","1","1","2018/1/4 00:00:00","2018/2/13 00:00:00"
"398","あいけい 居宅介護支援事業所","0","7","9011111","沖縄県","島尻郡南風原町","字兼城214番地の2","26.196835","127.726304","098-996-2266","098-996-2267","","","","","","","","","","","","","0","0","","","","1","1","2018/1/4 00:00:00","2018/2/13 00:00:00"
"399","ケアプランあい","0","7","9011116","沖縄県","島尻郡南風原町","照屋253番地の６東宝19　１０３号室","26.183109","127.725325","098-894-6071","098-894-6072","","","","","","","","","","","","","0","0","","","","1","1","2018/1/4 00:00:00","2018/2/13 00:00:00"
"400","南部徳洲会病院　指定居宅介護支援事業所","0","7","9010493","沖縄県","島尻郡八重瀬町","字外間８０番地　（１階）","26.177815","127.714589","098-998-3224","098-998-8644","","","","","","","","","","","","","0","0","","","","1","1","2018/1/4 00:00:00","2018/2/13 00:00:00"
"401","指定居宅介護支援事業所東風の里","0","7","9010411","沖縄県","島尻郡八重瀬町","字友寄891番地の1","26.169666","127.725503","098-998-9390","098-998-9393","","","","","","","","","","","","","0","0","","","","1","1","2018/1/4 00:00:00","2018/2/13 00:00:00"
"402","指定居宅介護支援事業所　東風平第一","0","7","9010411","沖縄県","島尻郡八重瀬町","友寄42","26.170338","127.721034","098-998-6987","098-998-6978","","","","","","","","","","","","","0","0","","","","1","1","2018/1/4 00:00:00","2018/2/13 00:00:00"
"403","ときわ苑指定居宅介護支援センター","0","7","9010414","沖縄県","島尻郡八重瀬町","字当銘378番の1","26.151644","127.698723","098-998-1200","098-998-8099","","","","","","","","","","","","","0","0","","","","1","1","2018/1/4 00:00:00","2018/2/13 00:00:00"
"404","転生園指定居宅介護支援事業所","0","7","9010514","沖縄県","島尻郡八重瀬町","字安里670番地","26.122628","127.728018","098-998-7652","098-998-7653","","","","","","","","","","","","","0","0","","","","1","1","2018/1/4 00:00:00","2018/2/13 00:00:00"
